cafe_name	image_url	rating	latitude	longitude	address	tel	opening_hour	homepage_url
알베르	//t1.kakaocdn.net/thumb/T800x0.q50/?fname=http%3A%2F%2Ft1.daumcdn.net%2Flocalfiy%2F901B43175C6A440E9577A2B512BD15BE	3.1	37.5029796720996	127.028119720582	서울 강남구 강남대로102길 34	02-566-6181	매일 10:00 ~ 23:00	NULL
블루보틀 역삼 카페	//t1.kakaocdn.net/thumb/T800x0.q50/?fname=http%3A%2F%2Ft1.kakaocdn.net%2Fmystore%2FB1F2AC415A44461E8AC3DF6149C625E1	3.9	37.50003049065215	127.0323775713204	서울 강남구 테헤란로 129	1533-6906	매일 08:00 ~ 20:30	https://www.bluebottlecoffeekorea.com/
썸띵어바웃커피	//t1.kakaocdn.net/thumb/T800x0.q50/?fname=http%3A%2F%2Ft1.kakaocdn.net%2Ffiy_reboot%2Fplace%2F9521163CEF8349FC97A36C3242E1EEB9	3.6	37.502824775159816	127.02779847587531	서울 강남구 강남대로102길 30	NULL	매일 11:00 ~ 23:00	https://instagram.com/something_about_coffee_
카페413프로젝트	//t1.kakaocdn.net/thumb/T800x0.q50/?fname=http%3A%2F%2Ft1.daumcdn.net%2Fplace%2F41B491465E0749A9AF08716B9CDC7178	4.1	37.5023544936241	127.034470798439	서울 강남구 논현로97길 19-11	070-7798-0544	화~일 10:30 ~ 21:00 / 기타 (브런치 라스트오더 19:00)	https://www.instagram.com/cafe413project/
정월	//t1.kakaocdn.net/thumb/T800x0.q50/?fname=http%3A%2F%2Ft1.daumcdn.net%2Fplace%2F8B542B92FEB148BAB6318CB5A8BE84A6	3.4	37.5036607105687	127.028626642226	서울 강남구 강남대로102길 46	02-6013-0926	매일 11:00 ~ 22:00	https://www.instagram.com/cafe_jungwol
가배도 신논현점	//t1.kakaocdn.net/thumb/T800x0.q50/?fname=http%3A%2F%2Ft1.kakaocdn.net%2Fmystore%2FB59A20ADFA864C31B54124064E339231	3.4	37.504014524333215	127.02594414795092	서울 강남구 강남대로110길 13	02-554-4542	매일 11:00 ~ 21:00	https://www.instagram.com/gbdcoffee
루프808	//t1.kakaocdn.net/thumb/T800x0.q50/?fname=http%3A%2F%2Ft1.kakaocdn.net%2Fmystore%2F437F8E2FB0144C9A87823DB77D21CF68	4.3	37.504339079125394	127.02505080057104	서울 강남구 강남대로 470	02-3452-8088	매일 11:00 ~ 01:00	https://instagram.com/roof808
빌리엔젤 강남역점	//t1.kakaocdn.net/thumb/T800x0.q50/?fname=http%3A%2F%2Ft1.daumcdn.net%2Fcfile%2F231574395697041A19	2.9	37.50144282174391	127.02698144077588	서울 강남구 테헤란로1길 48	070-5051-8135	매일 11:00 ~ 23:00	http://www.billyangel.co.kr/
평화다방 강남역점	//t1.kakaocdn.net/thumb/T800x0.q50/?fname=http%3A%2F%2Ft1.daumcdn.net%2Fplace%2F930435CFBAD044E5996EE374EF8175D1	2.7	37.4991954216359	127.028226866339	서울 강남구 강남대로94길 10	070-4801-1386	매일 11:00 ~ 22:00	https://www.instagram.com/peace_coffee_house
까치화방 강남점	//t1.kakaocdn.net/thumb/T800x0.q50/?fname=http%3A%2F%2Ft1.daumcdn.net%2Flocalfiy%2F7CB98108E8C242B2BEB841154ED91B38	NULL	37.5032665250306	127.026683527445	서울 강남구 봉은사로4길 23	02-558-5533	매일 11:30 ~ 22:00	https://www.instagram.com/cachi_flowercafe/
겟썸커피 다운스테어즈	//t1.kakaocdn.net/thumb/T800x0.q50/?fname=http%3A%2F%2Ft1.daumcdn.net%2Fplace%2F2F72767995744BD2AF5671748D40230E	3.5	37.5030699699519	127.027278333241	서울 강남구 봉은사로6길 30	070-4113-3619	화~일 11:00 ~ 22:00	https://www.instagram.com/get.some.coffee/
스타벅스 강남R점	//t1.kakaocdn.net/thumb/T800x0.q50/?fname=http%3A%2F%2Ft1.daumcdn.net%2Fplace%2F469AED68708949D7AC7F30BA780C4A41	4.2	37.4976744709989	127.028443419181	서울 강남구 강남대로 390	1522-3232	월~토 07:00 ~ 22:00 / 일 08:00 ~ 22:00	http://www.starbucks.co.kr
쉼스토리	//t1.kakaocdn.net/thumb/T800x0.q50/?fname=http%3A%2F%2Ft1.daumcdn.net%2Flocalfiy%2F81AEE70B16EA4F94B9850063B3661482	4.5	37.49454553431844	127.03099334872962	서울 강남구 역삼로3길 17	070-7778-6441	월~금 10:00 ~ 22:30 / 토,일 11:00 ~ 23:00	http://blog.naver.com/shuimstory1
더달달	//t1.kakaocdn.net/thumb/T800x0.q50/?fname=http%3A%2F%2Ft1.daumcdn.net%2Fcfile%2F216D313652F458512E	4.2	37.503192221615	127.028486226258	서울 강남구 강남대로102길 38-6	02-562-3737	월~토 10:30 ~ 24:00 / 일 13:00 ~ 22:00	https://blog.naver.com/cafethedaldal
비트포비아 강남던전점	//t1.kakaocdn.net/thumb/T800x0.q50/?fname=http%3A%2F%2Ft1.kakaocdn.net%2Fmystore%2FE87161BAD9E9440CBAEC24BED8CC4F86	3.6	37.497583697643	127.031112213726	서울 강남구 강남대로84길 33	02-555-4360	월~금 11:30 ~ 23:00	https://www.xdungeon.net
크리에잇쿠키 역삼점	//t1.kakaocdn.net/thumb/T800x0.q50/?fname=http%3A%2F%2Ft1.kakaocdn.net%2Ffiy_reboot%2Fplace%2F0C45B8C55E854B8E9BFD7686D38E5EBE	4.2	37.50292193725799	127.03511569524726	서울 강남구 테헤란로25길 36	02-558-8890	매일 08:00 ~ 21:00	http://www.cre8cookies.com
코드케이 강남점	NULL	3.6	37.5025727970466	127.026477450392	서울 강남구 봉은사로2길 31	02-501-8245	매일 10:00 ~ 23:00	http://www.code-k.co.kr
키이스케이프 강남 더오름	//t1.kakaocdn.net/thumb/T800x0.q50/?fname=http%3A%2F%2Ft1.daumcdn.net%2Fplace%2F0A623357F50A42BE9E999E35DDAA4C3E	4.8	37.4966142182906	127.03109824138642	서울 강남구 테헤란로6길 30	010-3776-6082	월~금 10:00 ~ 23:30 / 토,일 10:00 ~ 24:00	http://keyescape.com
로얄마카롱	//t1.kakaocdn.net/thumb/T800x0.q50/?fname=http%3A%2F%2Ft1.daumcdn.net%2Flocalfiy%2F73D7A83AED034A91B79D9B7DE5209284	4.2	37.5022676929746	127.035497643301	서울 강남구 테헤란로25길 26	070-4110-2000	매일 11:00 ~ 21:00	http://www.instagram.com/royal__macaron
로브니	//t1.kakaocdn.net/thumb/T800x0.q50/?fname=http%3A%2F%2Ft1.daumcdn.net%2Fplace%2F364382B541AC412E9355D13E92219740	3.9	37.50286479321628	127.04886110524788	서울 강남구 선릉로85길 8	070-4122-1816	월~금 10:00 ~ 20:30 / 토,일 11:00 ~ 18:30	https://www.instagram.com/laubenuit_official/
키이스케이프 강남점	NULL	4.7	37.5001035869388	127.028430769789	서울 강남구 강남대로96길 17	010-7456-6082	NULL	http://keyescape.co.kr
브라운홀릭	//t1.kakaocdn.net/thumb/T800x0.q50/?fname=http%3A%2F%2Ft1.daumcdn.net%2Fcfile%2F193545344E8AC09819	3.4	37.5010549835616	127.028702549419	서울 강남구 강남대로98길 25	02-555-5978	월~금 09:00 ~ 22:00 / 토,일 10:00 ~ 22:00	https://www.instagram.com/brownholic/
후웨이즈텐카민	//t1.kakaocdn.net/thumb/T800x0.q50/?fname=http%3A%2F%2Ft1.daumcdn.net%2Fplace%2F0C1862384E544F72943C560876B87645	3.8	37.5092098415682	127.043834396892	서울 강남구 선릉로107길 4	02-568-2227	월~금 08:00 ~ 22:30 / 토,일 09:00 ~ 21:30	NULL
고양이라좋은날	//t1.kakaocdn.net/thumb/T800x0.q50/?fname=http%3A%2F%2Ft1.kakaocdn.net%2Ffiy_reboot%2Fplace%2F294069F199B54A7A8CA5AE097E1C9732	4.4	37.500860377276986	127.02865723856092	서울 강남구 강남대로98길 28	02-556-3880	매일 12:00 ~ 22:00	https://www.instagram.com/dewisaya1/
욕망의북카페	//t1.kakaocdn.net/thumb/T800x0.q50/?fname=http%3A%2F%2Ft1.kakaocdn.net%2Fmystore%2F0E4BA32468D14B3CBD7D4505C5C4D998	4.0	37.503842804062	127.028251234978	서울 강남구 강남대로102길 45	02-6956-0121	매일 10:00 ~ 22:00	http://Blog.naver.com/chaeyujin00
뮬리	//t1.kakaocdn.net/thumb/T800x0.q50/?fname=http%3A%2F%2Ft1.daumcdn.net%2Flocalfiy%2F4B132080C077449A89C3E32A842688F6	3.6	37.5021090969379	127.035560900184	서울 강남구 논현로93길 6	02-538-0803	월~금 08:00 ~ 22:00 / 토 11:00 ~ 22:00 / 일 11:00 ~ 21:00	https://www.facebook.com/Muhly2017
트리오드	//t1.kakaocdn.net/thumb/T800x0.q50/?fname=http%3A%2F%2Ft1.kakaocdn.net%2Fmystore%2F5819BADA51884B3DAB21DE2C4D89352F	3.4	37.4996167604381	127.029584093415	서울 강남구 강남대로94길 28	02-568-9427	매일 11:00 ~ 22:00 / 매일 라스트오더 ~ 21:00	https://instagram.com/triode.official
할리스 강남역점	//t1.kakaocdn.net/thumb/T800x0.q50/?fname=http%3A%2F%2Ft1.daumcdn.net%2Fplace%2FE149830B5F8642D6BDB52263A4F5595C	3.1	37.49871619356776	127.02777433522404	서울 강남구 강남대로 402	02-555-0890	월~목 07:30 ~ 24:00 / 금,토 07:30 ~ 01:00 / 일 08:30 ~ 24:00	http://www.hollys.co.kr
클로리스 역삼GFC점	//t1.kakaocdn.net/thumb/T800x0.q50/?fname=http%3A%2F%2Ft1.kakaocdn.net%2Ffiy_reboot%2Fplace%2F04C18B3E3AC74EF28E6AD42A89FECFCA	4.1	37.5000833293743	127.036564176373	서울 강남구 테헤란로 152	02-553-7523	월~금 08:30 ~ 22:00 / 토 11:30 ~ 21:00 / 일 11:30 ~ 18:00	http://www.cafechloris.co.kr/
에이비카페	//t1.kakaocdn.net/thumb/T800x0.q50/?fname=http%3A%2F%2Ft1.kakaocdn.net%2Ffiy_reboot%2Fplace%2FEB2CA8F0BDB440FFAA50495B61A2DF0A	3.8	37.5028968235922	127.027934215372	서울 강남구 강남대로102길 32	02-566-2052	월~금 09:00 ~ 23:00 / 토,일 11:00 ~ 23:00	http://abcafe.co.kr/
넥스트에디션 강남5호점	//t1.kakaocdn.net/thumb/T800x0.q50/?fname=http%3A%2F%2Ft1.kakaocdn.net%2Ffiy_reboot%2Fplace%2F4814A3A350DD4522A3D9836C13836370	2.4	37.499545006601	127.028249615716	서울 강남구 강남대로94길 11	0507-457-6277	매일 10:30 ~ 24:00	https://www.nextedition.co.kr/shops/Nextedition%20gangnam5
투썸플레이스 강남대륭타워점	//t1.kakaocdn.net/thumb/T800x0.q50/?fname=http%3A%2F%2Ft1.daumcdn.net%2Fplace%2FB08EC6CB37E0462683BFDA0B6C3FB3F4	2.4	37.49518747696192	127.02932564919723	서울 강남구 강남대로 362	02-538-2369	매일 07:00 ~ 23:00	http://www.twosome.co.kr
라브리크 서울	//t1.kakaocdn.net/thumb/T800x0.q50/?fname=http%3A%2F%2Ft1.daumcdn.net%2Fplace%2FD63E40F5A6AE44FCAA85746FBDE16820	2.6	37.5024174875367	127.027938560521	서울 강남구 봉은사로18길 66	02-555-1215	매일 10:00 ~ 22:00 / 매일 라스트오더 ~ 21:00	https://www.instagram.com/labrick_official/
룸카페 바니	//t1.kakaocdn.net/thumb/T800x0.q50/?fname=http%3A%2F%2Ft1.kakaocdn.net%2Ffiy_reboot%2Fplace%2F2B1AAA5222864076A933D321A16B2131	3.1	37.499734261007006	127.02806874426594	서울 강남구 강남대로96길 12	NULL	월~금 12:00 ~ 24:00 / 토,일 11:00 ~ 24:00	https://m.blog.naver.com/cfbunny
그레이스케일커피	//t1.kakaocdn.net/thumb/T800x0.q50/?fname=http%3A%2F%2Ft1.daumcdn.net%2Fplace%2F0D57C4097484466D9F3697C7DE8CE199	3.4	37.5032535497272	127.028237441604	서울 강남구 강남대로102길 38	02-565-1611	월~토 11:00 ~ 23:00 / 일 12:00 ~ 23:00	https://www.instagram.com/greyscale_coffee/
502커피로스터스 역삼점	//t1.kakaocdn.net/thumb/T800x0.q50/?fname=http%3A%2F%2Ft1.daumcdn.net%2Fplace%2FD6E562107FB94E2A8A15219DDB2D654C	4.6	37.49971442044447	127.03489932368711	서울 강남구 테헤란로 142	02-556-0502	월~금 07:30 ~ 19:30 / 토,일 11:00 ~ 19:00	http://www.502coffee.com
스타벅스 선릉역점	//t1.kakaocdn.net/thumb/T800x0.q50/?fname=http%3A%2F%2Ft1.daumcdn.net%2Fplace%2FDAC30C7D95D04EB18D7E3DA7BE823ECF	3.8	37.5038956552172	127.04859034788	서울 강남구 테헤란로 334	1522-3232	월~금 07:00 ~ 21:00 / 토 08:00 ~ 18:00 / 일 10:00 ~ 18:00	http://www.starbucks.co.kr
사주테라피	//t1.kakaocdn.net/thumb/T800x0.q50/?fname=http%3A%2F%2Ft1.daumcdn.net%2Fcfile%2F2432C341559B515439	3.4	37.5096535647654	127.04266289711	서울 강남구 봉은사로 326	070-7560-1087	매일 10:00 ~ 21:00	http://sajutherapy.modoo.at
스크렘	//t1.kakaocdn.net/thumb/T800x0.q50/?fname=http%3A%2F%2Ft1.daumcdn.net%2Flocalfiy%2FDA638152325A4D628BA45D24D563F565	3.3	37.50372608718901	127.02646428623794	서울 강남구 봉은사로4길 17	NULL	월~토 12:00 ~ 22:00 / 일 12:00 ~ 18:00	https://www.instagram.com/cafe.screme/
스타벅스 강남대로점	//t1.kakaocdn.net/thumb/T800x0.q50/?fname=http%3A%2F%2Ft1.daumcdn.net%2Fplace%2FFFE5BF5457C3430C94933375F614C05D	4.4	37.5032649716005	127.025559367137	서울 강남구 강남대로 456	1522-3232	월~토 08:00 ~ 22:00 / 일 09:00 ~ 21:00	http://www.starbucks.co.kr
소과당	//t1.kakaocdn.net/thumb/T800x0.q50/?fname=http%3A%2F%2Ft1.kakaocdn.net%2Fmystore%2F82FA9EA8ABB8477394A00E32EB427514	2.7	37.499734261007006	127.02806874426594	서울 강남구 강남대로96길 12	02-538-8188	화~일 11:00 ~ 22:00	https://www.instagram.com/sogwadang
커피빈 강남역먹자골목점	//t1.kakaocdn.net/thumb/T800x0.q50/?fname=http%3A%2F%2Ft1.daumcdn.net%2Fplace%2FD887BF639E2A488B9E41E16056CC1DDB	3.7	37.50009844948983	127.02729195389342	서울 강남구 테헤란로1길 29	02-552-6311	월~목 07:30 ~ 23:00 / 금 07:00 ~ 24:00 / 토 08:00 ~ 24:00 / 일 08:00 ~ 23:00	http://www.coffeebeankorea.com
투썸플레이스 강남역중앙점	//t1.kakaocdn.net/thumb/T800x0.q50/?fname=http%3A%2F%2Ft1.daumcdn.net%2Fplace%2F8F59EF4971A74BB4A60048AEE9A34E2B	1.9	37.499418935961735	127.0279544066067	서울 강남구 테헤란로1길 16	02-558-1125	매일 11:00 ~ 21:00	http://www.twosome.co.kr
스타벅스 강남우성점	NULL	3.9	37.492329129164	127.03071652243	서울 강남구 강남대로 328	1522-3232	월~금 07:00 ~ 22:00 / 토,일 08:00 ~ 21:00	http://www.starbucks.co.kr
엑스케이프 강남점	NULL	4.2	37.50355057000109	127.02565333332532	서울 강남구 봉은사로2길 16	02-555-9366	월~금 11:00 ~ 24:00 / 토,일 10:00 ~ 01:00	http://www.xcape.kr/
스타벅스 강남비젼타워점	//t1.kakaocdn.net/thumb/T800x0.q50/?fname=http%3A%2F%2Ft1.daumcdn.net%2Fcfile%2F2609945055E006BE18	3.8	37.49649026006633	127.0296167853337	서울 강남구 테헤란로2길 27	1522-3232	월~금 07:00 ~ 22:00 / 토 07:30 ~ 21:00 / 일 08:00 ~ 20:00	http://www.starbucks.co.kr
어퍼앤언더	//t1.kakaocdn.net/thumb/T800x0.q50/?fname=http%3A%2F%2Ft1.daumcdn.net%2Fplace%2F7BF76982E5954CC2AC2021D5E4FE8B21	2.9	37.5027373946275	127.027726063481	서울 강남구 강남대로102길 28	NULL	매일 11:00 ~ 22:00	https://www.instagram.com/upperand_under/
테이블스 역삼점	//t1.kakaocdn.net/thumb/T800x0.q50/?fname=http%3A%2F%2Ft1.daumcdn.net%2Fplace%2F2E027E37B1834D12B2B8C2CC42DF9F5C	3.9	37.49810192289427	127.0338559133824	서울 강남구 논현로85길 52	02-563-1144	매일 08:00 ~ 23:30	https://www.instagram.com/tablesbakery/
인포메이션카페	//t1.kakaocdn.net/thumb/T800x0.q50/?fname=http%3A%2F%2Ft1.kakaocdn.net%2Ffiy_reboot%2Fplace%2F0A35FE93DEF94D569CD3AB743646EA8C	4.2	37.4940621462283	127.032657696336	서울 강남구 역삼로 121	02-2189-2046	월~금 08:00 ~ 22:00 / 토 10:00 ~ 22:00	https://www.instagram.com/information_cafe/
커피빈 강남역12번출구점	//t1.kakaocdn.net/thumb/T800x0.q50/?fname=http%3A%2F%2Ft1.kakaocdn.net%2Ffiy_reboot%2Fplace%2F869164BFD1874C8F807D027F0642F181	4.4	37.4988455657308	127.029316901779	서울 강남구 테헤란로 111	02-569-5838	월~금 07:00 ~ 22:00 / 토 09:00 ~ 22:00 / 일 09:00 ~ 21:00	http://www.coffeebeankorea.com
스타벅스 아크로힐스논현점	//t1.kakaocdn.net/thumb/T800x0.q50/?fname=http%3A%2F%2Ft1.daumcdn.net%2Fplace%2F25B3F5FB091A4A3B986049CAA0329873	3.0	37.5090020498856	127.040350697045	서울 강남구 봉은사로 304	NULL	월~금 07:00 ~ 22:00 / 토,일 07:00 ~ 21:00	http://www.starbucks.co.kr
반지만들기 반지공방 8그램	//t1.kakaocdn.net/thumb/T800x0.q50/?fname=http%3A%2F%2Ft1.daumcdn.net%2Flocalfiy%2F6171CDBBE8E94113B6A13CE6B773BB86	4.2	37.50223399453354	127.02658590001938	서울 강남구 봉은사로2길 37	02-508-8988	매일 11:00 ~ 21:30	http://blog.naver.com/cafe_8gram
탐앤탐스 역삼점	//t1.kakaocdn.net/thumb/T800x0.q50/?fname=http%3A%2F%2Ft1.daumcdn.net%2Fplace%2F72C76D07335442AB85A50293970AB529	3.2	37.495420471560514	127.03981416167038	서울 강남구 논현로 338	02-3452-4565	매일 00:00 ~ 24:00	https://www.tomntoms.com
마스터키 강남점	//t1.kakaocdn.net/thumb/T800x0.q50/?fname=http%3A%2F%2Ft1.daumcdn.net%2Flocalad_thumb%2Ft%2Fa71d8a87533d277d7fa723e4ed63767ce749cede	3.6	37.5033114706965	127.027142707569	서울 강남구 봉은사로6길 26	02-558-6685	NULL	http://www.master-key.co.kr
스타벅스 강남오거리점	//t1.kakaocdn.net/thumb/T800x0.q50/?fname=http%3A%2F%2Ft1.daumcdn.net%2Fplace%2F887B3BAC645D4275A1B756443A8B5EAF	3.9	37.5021150424068	127.026671808376	서울 강남구 봉은사로2길 39	1522-3232	월~금 07:00 ~ 21:30 / 토 08:00 ~ 22:00 / 일 09:00 ~ 22:00	http://www.starbucks.co.kr
셀렉티드마롱	//t1.kakaocdn.net/thumb/T800x0.q50/?fname=http%3A%2F%2Ft1.kakaocdn.net%2Fmystore%2F2E75469E509F4AED90EE4696270DF11F	4.0	37.4961925947187	127.030917132353	서울 강남구 테헤란로4길 37	070-4284-5104	월~금 08:00 ~ 22:00 / 토,일 11:00 ~ 22:00	https://www.instagram.com/sltdmlng/
설빙 강남역점	//t1.kakaocdn.net/thumb/T800x0.q50/?fname=http%3A%2F%2Ft1.daumcdn.net%2Fplace%2FBE0DF51FCBD24B05AE68EBF1E5500A6E	2.1	37.50113103589973	127.02714644191718	서울 강남구 테헤란로1길 42	02-558-7708	매일 10:30 ~ 22:30	http://www.sulbing.com
카페봄	NULL	4.4	37.50460394942532	127.04371182149568	서울 강남구 테헤란로43길 19	02-554-0613	NULL	NULL
라스트이스케이프	NULL	NULL	37.50080281636902	127.0282274714139	서울 강남구 강남대로98길 20	02-567-3399	매일 10:00 ~ 22:50	http://lastescape.co.kr/
투썸플레이스 테헤란선릉역점	//t1.kakaocdn.net/thumb/T800x0.q50/?fname=http%3A%2F%2Ft1.daumcdn.net%2Fplace%2F0C362C896C3D4A9BAB9F59101BFC8E03	2.7	37.50332119122835	127.04766373064494	서울 강남구 선릉로89길 16	02-501-0025	월~금 07:00 ~ 23:30 / 토 07:30 ~ 22:30 / 일 08:00 ~ 22:30	http://www.twosome.co.kr
크라프트카페	//t1.kakaocdn.net/thumb/T800x0.q50/?fname=http%3A%2F%2Ft1.daumcdn.net%2Fplace%2F88BAA453916C4BA5AE8C4D4A90B6F58C	3.9	37.5033363584559	127.028585804312	서울 강남구 강남대로102길 38-5	070-4667-2436	매일 11:00 ~ 23:00	http://blog.naver.com/craftcafe01
카페레꼴뜨	//t1.kakaocdn.net/thumb/T800x0.q50/?fname=http%3A%2F%2Ft1.daumcdn.net%2Flocalfiy%2FAF0C3741305D4E2A80E4D5813E63AEBC	4.3	37.5091382293923	127.042554024552	서울 강남구 봉은사로50길 10	070-7777-7675	월~금 08:00 ~ 20:00 / 토,일 10:00 ~ 20:00 / 매일 라스트오더 ~ 19:30	https://www.instagram.com/cafe.recolte/
투썸플레이스 역삼성홍타워점	//t1.kakaocdn.net/thumb/T800x0.q50/?fname=http%3A%2F%2Ft1.daumcdn.net%2Flocalfiy%2F8F3B51CA505F454C981CAE2D22469873	3.0	37.49963981150864	127.03430330955013	서울 강남구 테헤란로 138	02-508-2388	월~금 07:00 ~ 22:00 / 토,일 08:00 ~ 22:00	http://www.twosome.co.kr
커피빈 신논현역점	//t1.kakaocdn.net/thumb/T800x0.q50/?fname=http%3A%2F%2Ft1.daumcdn.net%2Flocal%2FkakaomapPhoto%2Freview%2F493739e929bd658d3b00620db2bcfdbf4a246518%3Foriginal	4.2	37.5045407953024	127.025559802073	서울 강남구 봉은사로 108	02-569-9061	월~금 07:00 ~ 23:00 / 토 08:00 ~ 23:00 / 일 08:00 ~ 22:00	http://www.coffeebeankorea.com
두젠틀 강남점	//t1.kakaocdn.net/thumb/T800x0.q50/?fname=http%3A%2F%2Ft1.daumcdn.net%2Fplace%2F0F76497B0DB2439EB1B4EAA302BF29D0	3.8	37.50406423139959	127.03571903057644	서울 강남구 논현로 534	02-6259-1436	매일 13:00 ~ 21:00(유치원 11시 오픈)	https://www.instagram.com/dogentle_gangnam
스타벅스 도곡공원점	//t1.kakaocdn.net/thumb/T800x0.q50/?fname=http%3A%2F%2Ft1.daumcdn.net%2Fplace%2FD70BF422A4494800B9B8CCC6C9527B09	4.1	37.4928052373632	127.041305413122	서울 강남구 도곡로 205	1522-3232	월~금 07:00 ~ 22:00 / 토,일 08:00 ~ 21:00	http://www.starbucks.co.kr
타우너스에스프레소바 역삼점	//t1.kakaocdn.net/thumb/T800x0.q50/?fname=http%3A%2F%2Ft1.kakaocdn.net%2Fmystore%2F10B9BDC20F394764AF96BEEC038CD920	4.0	37.4984604586838	127.039840654823	서울 강남구 테헤란로28길 41	02-2135-1467	월~금 08:00 ~ 24:00 / 토,일 09:00 ~ 22:00	https://towners.co.kr/
퓨	//t1.kakaocdn.net/thumb/T800x0.q50/?fname=http%3A%2F%2Ft1.daumcdn.net%2Fplace%2F87F81C05C624478D89643069CAA8930F	5.0	37.5057750842007	127.033164954477	서울 강남구 논현로105길 13	02-555-8958	월~금 08:00 ~ 22:00 / 토,일 09:00 ~ 18:00	https://cafepur.modoo.at/
커피스미스 본사점	//t1.kakaocdn.net/thumb/T800x0.q50/?fname=http%3A%2F%2Ft1.daumcdn.net%2Fplace%2F53E94828CE8B42998760EC585A4C6FE1	4.4	37.4972950957926	127.032157004364	서울 강남구 테헤란로8길 25	02-566-6740	월~금 08:00 ~ 02:00 / 토,일 08:00 ~ 23:00	http://coffeesmith.co.kr
설빙 선릉점	//t1.kakaocdn.net/thumb/T800x0.q50/?fname=http%3A%2F%2Ft1.daumcdn.net%2Fplace%2FA4815CC372F9418D8FE249DE64011D7B	4.3	37.50300924201736	127.04816001565428	서울 강남구 테헤란로52길 17	02-564-9192	매일 12:00 ~ 23:00	http://www.sulbing.com
프라텔리	//t1.kakaocdn.net/thumb/T800x0.q50/?fname=http%3A%2F%2Ft1.kakaocdn.net%2Ffiy_reboot%2Fplace%2FEA526669D694461C82FEA1014C8B4191	4.0	37.5028429995628	127.026916350165	서울 강남구 봉은사로4길 31	010-5025-0261	매일 12:00 ~ 23:00	https://www.instagram.com/fratelli_odt
바나프레소 강남점	//t1.kakaocdn.net/thumb/T800x0.q50/?fname=http%3A%2F%2Ft1.daumcdn.net%2Fplace%2F550957F417DF46E688D5D2519EAF4272	3.9	37.4950881315328	127.0302562769444	서울 강남구 테헤란로4길 46	070-8998-8922	매일 06:30 ~ 22:30	http://www.banapresso.com
스타벅스 국기원사거리점	//t1.kakaocdn.net/thumb/T800x0.q50/?fname=http%3A%2F%2Ft1.daumcdn.net%2Fplace%2F40BB7A4A9106461AAF3BD50D97730B95	4.2	37.4996054052968	127.031678497624	서울 강남구 테헤란로 125	1522-3232	월~금 07:00 ~ 22:00 / 토 08:00 ~ 21:00 / 일 09:00 ~ 21:00	http://www.starbucks.co.kr
이디야커피 역삼역점	//t1.kakaocdn.net/thumb/T800x0.q50/?fname=http%3A%2F%2Ft1.daumcdn.net%2Fcfile%2F1567CB4F500A67DF1F	3.4	37.5017704056094	127.035271223302	서울 강남구 테헤란로25길 17	02-3454-0045	월~금 08:00 ~ 21:00 / 토 09:00 ~ 19:00 / 일 12:00 ~ 17:00	http://www.ediya.com
투썸플레이스 역삼역점	//t1.kakaocdn.net/thumb/T800x0.q50/?fname=http%3A%2F%2Ft1.daumcdn.net%2Fplace%2FBD099AEA05DA4B248CA148B50678B141	3.6	37.50240566234112	127.0380219498173	서울 강남구 테헤란로27길 16	02-555-2348	월~금 08:00 ~ 22:20 / 토 12:00 ~ 22:00 / 일 12:00 ~ 21:00	http://www.twosome.co.kr
스타벅스 언주역점	//t1.kakaocdn.net/thumb/T800x0.q50/?fname=http%3A%2F%2Ft1.daumcdn.net%2Fplace%2F4C2B433D7FDC4631A88C85A30FDD486B	3.2	37.507770715347	127.036540781248	서울 강남구 봉은사로 222	1522-3232	월~금 07:00 ~ 20:00 / 토,일 09:00 ~ 20:00	https://www.starbucks.co.kr
커피빈 역삼점	//t1.kakaocdn.net/thumb/T800x0.q50/?fname=http%3A%2F%2Ft1.kakaocdn.net%2Ffiy_reboot%2Fplace%2FC0E6F3B780B54AA8AEC28B585FFF794E	4.5	37.5023394533886	127.036547181651	서울 강남구 논현로 512	02-569-8051	월~금 07:00 ~ 23:00 / 토 08:00 ~ 23:00 / 일 08:00 ~ 22:00	http://www.coffeebeankorea.com
프레임바이로찌	//t1.kakaocdn.net/thumb/T800x0.q50/?fname=http%3A%2F%2Ft1.kakaocdn.net%2Ffiy_reboot%2Fplace%2F3692173F616D4ED49C555751441A0F87	3.4	37.503834421735	127.025491704022	서울 강남구 봉은사로2길 12	NULL	월~토 10:30 ~ 23:00 / 일 11:00 ~ 22:00 / 월~토 라스트오더 ~ 22:40 / 일 라스트오더 ~ 21:40	NULL
세라젬웰카페 서울대치직영점	//t1.kakaocdn.net/thumb/T800x0.q50/?fname=http%3A%2F%2Ft1.daumcdn.net%2Fplace%2F6FC7732AE738401D9464C5C3A61376CD	4.7	37.49838380164143	127.05165822383763	서울 강남구 선릉로 323	02-6951-0325	매일 11:00 ~ 20:00	http://www.ceragem.co.kr
강남타로매니아	//t1.kakaocdn.net/thumb/T800x0.q50/?fname=http%3A%2F%2Ft1.kakaocdn.net%2Fmystore%2F3E544309B3454801985AA1FCABD9428C	3.7	37.500287605379405	127.02753064274846	서울 강남구 테헤란로1길 30	02-6052-8873	매일 11:00 ~ 22:30	http://tarotmania.co.kr
스타벅스 역삼대로점	//t1.kakaocdn.net/thumb/T800x0.q50/?fname=http%3A%2F%2Ft1.daumcdn.net%2Fplace%2FE83D4DE585B24D039A1F80DFF985BB42	4.2	37.5018952591279	127.039347134781	서울 강남구 테헤란로 211	NULL	월~금 07:00 ~ 21:00 / 토,일 09:30 ~ 17:30	http://www.starbucks.co.kr
아마폴라델리	//t1.kakaocdn.net/thumb/T800x0.q50/?fname=http%3A%2F%2Ft1.daumcdn.net%2Fplace%2F15C439F8963C4FF7B3B6557549EEB258	3.3	37.50436842177457	127.0422391716268	서울 강남구 언주로 510	NULL	매일 00:00 ~ 24:00	NULL
범표원두 역삼점	//t1.kakaocdn.net/thumb/T800x0.q50/?fname=http%3A%2F%2Ft1.daumcdn.net%2Flocalfiy%2Fsearchregister_1681486647	4.3	37.50508733872435	127.0398928079502	서울 강남구 테헤란로37길 42	02-6402-3071	월,화,수,목,금,일 10:00 ~ 19:00	https://www.instagram.com/bumpyobeans
스타벅스 르네상스사거리점	//t1.kakaocdn.net/thumb/T800x0.q50/?fname=http%3A%2F%2Ft1.daumcdn.net%2Fplace%2F7BAC3BE42C884FB59F65B983F2932134	4.7	37.5027368125577	127.044391557267	서울 강남구 테헤란로 306	1522-3232	월~금 07:00 ~ 20:00 / 토,일 09:00 ~ 18:00	http://www.starbucks.co.kr
세븐클루스 강남1호점	//t1.kakaocdn.net/thumb/T800x0.q50/?fname=http%3A%2F%2Ft1.daumcdn.net%2Fplace%2F9A4573EA067144E9B19BFD281D7ABCC5	1.8	37.49762754971	127.028728378205	서울 강남구 테헤란로2길 8	010-6551-6561	매일 10:00 ~ 23:00	http://sevenclues.com
베이커리로컬 커피나무	//t1.kakaocdn.net/thumb/T800x0.q50/?fname=http%3A%2F%2Ft1.daumcdn.net%2Fplace%2FAC7ECEB9729144628A7A8589502C1D46	3.5	37.5022212914829	127.026978328115	서울 강남구 강남대로102길 15	NULL	매일 11:00 ~ 22:40	https://instagram.com/bakery.local
싸인이스케이프 강남시티점	//t1.kakaocdn.net/thumb/T800x0.q50/?fname=http%3A%2F%2Ft1.daumcdn.net%2Fplace%2F0BCAB17C66334390A11488C85B167C31	5.0	37.5008233323577	127.032536240863	서울 강남구 강남대로94길 67	02-558-1008	매일 10:00 ~ 23:00	http://www.signescape.com/
커피빈 선릉역3번출구세방빌딩점	//t1.kakaocdn.net/thumb/T800x0.q50/?fname=http%3A%2F%2Ft1.daumcdn.net%2Flocal%2FkakaomapPhoto%2Freview%2F21154b078d4f5dfb02839bd60de963fc18762209%3Foriginal	5.0	37.50380536775	127.049042670767	서울 강남구 선릉로 433	02-2051-9328	월~금 07:00 ~ 22:00 / 토 08:00 ~ 22:00 / 일 08:00 ~ 21:00	http://www.coffeebeankorea.com
스타벅스 선릉로점	//t1.kakaocdn.net/thumb/T800x0.q50/?fname=http%3A%2F%2Ft1.daumcdn.net%2Fplace%2F0FC9CB1C841B4862A04F759E8BEC2225	3.6	37.504981194083	127.046786021313	서울 강남구 선릉로93길 22	1522-3232	월~금 07:00 ~ 21:30 / 토,일 10:00 ~ 18:00	http://www.starbucks.co.kr
투썸플레이스 강남역KR타워점	//t1.kakaocdn.net/thumb/T800x0.q50/?fname=http%3A%2F%2Ft1.kakaocdn.net%2Ffiy_reboot%2Fplace%2F3B2AA5D6FAE24E3E8480AAC5D9429963	2.7	37.4968740984736	127.029578488051	서울 강남구 강남대로84길 13	NULL	월~금 08:00 ~ 22:30 / 토,일 09:00 ~ 22:00	http://www.twosome.co.kr
스타벅스 아크플레이스점	//t1.kakaocdn.net/thumb/T800x0.q50/?fname=http%3A%2F%2Ft1.daumcdn.net%2Fplace%2FDF7DBFB243404524911C696801672F54	4.0	37.49970996873063	127.03471837892964	서울 강남구 테헤란로 142	1522-3232	월~금 07:00 ~ 22:00 / 토,일 09:00 ~ 17:00	http://www.starbucks.co.kr
스타벅스 역삼초교사거리점	//t1.kakaocdn.net/thumb/T800x0.q50/?fname=http%3A%2F%2Ft1.daumcdn.net%2Fplace%2FB1C8DDBF5CBE4A2E97634A4B0656DAD3	4.3	37.49408637124967	127.03302521915718	서울 강남구 역삼로 123	1522-3232	월~금 07:00 ~ 22:00 / 토,일 08:00 ~ 21:00	http://www.starbucks.co.kr
수수커피 강남N타워점	//t1.kakaocdn.net/thumb/T800x0.q50/?fname=http%3A%2F%2Ft1.daumcdn.net%2Flocalfiy%2Fsearchregister_1601281219	NULL	37.4999331851048	127.032366220354	서울 강남구 테헤란로 129	02-6250-0925	월~금 08:00 ~ 21:30 / 토,일 11:30 ~ 20:30	https://www.instagram.com/soosoocoffee
에슬로우커피 역삼1호점	NULL	4.1	37.49817575764839	127.03402218440802	서울 강남구 논현로85길 52	02-565-5977	매일 07:00 ~ 24:00(주말 및 공휴일은 변경될 수 있습니다.)	http://www.eslow.co.kr/
지유가오카핫초메 선릉점	//t1.kakaocdn.net/thumb/T800x0.q50/?fname=http%3A%2F%2Ft1.kakaocdn.net%2Fmystore%2F568D5408D11A44D7A4A00CE0F7020284	4.1	37.502748306799845	127.0472777167518	서울 강남구 테헤란로52길 16	070-8804-6226	월~금 09:00 ~ 21:30 / 토,일 10:00 ~ 21:30	https://m.place.naver.com/restaurant/34615854/home?entry=pll
메가MGC커피 역삼중앙점	//t1.kakaocdn.net/thumb/T800x0.q50/?fname=http%3A%2F%2Ft1.daumcdn.net%2Fplace%2F696EDEE6BCCE4B889155DF280180C97F	5.0	37.4968783107391	127.039783271842	서울 강남구 논현로76길 10	02-567-2257	매일 08:00 ~ 22:00	https://www.mega-mgccoffee.com
할리스 역삼스타점	//t1.kakaocdn.net/thumb/T800x0.q50/?fname=http%3A%2F%2Ft1.daumcdn.net%2Fplace%2FBC67C11C1A5C4F67A23F2BDF3FDB18EC	3.9	37.4994528291333	127.03589890685	서울 강남구 테헤란로26길 12	02-501-4142	월~금 08:00 ~ 23:00 / 토,일 10:00 ~ 21:00	http://www.hollys.co.kr
카페희다 역삼점	//t1.kakaocdn.net/thumb/T800x0.q50/?fname=http%3A%2F%2Ft1.kakaocdn.net%2Ffiy_reboot%2Fplace%2F792623284EA1419DB8C50CF44EF3CC90	4.3	37.4973648556904	127.039779006523	서울 강남구 역삼로25길 16	02-554-3759	월~금 08:00 ~ 20:00 / 토 12:00 ~ 21:00	NULL
파스쿠찌 역삼테헤란점	//t1.kakaocdn.net/thumb/T800x0.q50/?fname=http%3A%2F%2Ft1.daumcdn.net%2Fplace%2F76C295B085624227A478BAE9267BDF98	3.7	37.5009808634465	127.036134867874	서울 강남구 테헤란로 151	02-552-8497	월~금 07:30 ~ 22:30 / 토,일 09:00 ~ 18:00	https://www.caffe-pascucci.co.kr/
메가MGC커피 강남로데오점	//t1.kakaocdn.net/thumb/T800x0.q50/?fname=http%3A%2F%2Ft1.daumcdn.net%2Fplace%2F479123720F6149DB95282BAC99A4C0AC	2.8	37.4948412284066	127.030362474267	서울 강남구 강남대로78길 12	02-557-1341	매일 09:00 ~ 21:00	https://www.mega-mgccoffee.com/
스타벅스 센터필드R	//t1.kakaocdn.net/thumb/T800x0.q50/?fname=http%3A%2F%2Ft1.daumcdn.net%2Flocal%2FkakaomapPhoto%2Freview%2F3b81f32ebcda186c5f20c1313dba7b93063e6d5f%3Foriginal	3.9	37.50359376007631	127.04166760528298	서울 강남구 테헤란로 231	1522-3232	월~금 07:00 ~ 22:00 / 토,일 08:00 ~ 22:00	https://www.starbucks.co.kr/
설빙 강남역2호점	//t1.kakaocdn.net/thumb/T800x0.q50/?fname=http%3A%2F%2Ft1.daumcdn.net%2Fplace%2F6EE893015FBD440FABA15A825C301595	1.6	37.50334053236124	127.02612486617969	서울 강남구 봉은사로2길 21	02-6261-6802	매일 10:30 ~ 22:30	http://www.sulbing.com
카롱씨	//t1.kakaocdn.net/thumb/T800x0.q50/?fname=http%3A%2F%2Ft1.daumcdn.net%2Fplace%2FDD8FE61546D045CD86348BB7B49981B9	4.3	37.4970033271067	127.031573360151	서울 강남구 테헤란로8길 28-4	NULL	월~토 12:00 ~ 20:00	https://instagram.com/carong.c_
비밀의화원 리버타운점	//t1.kakaocdn.net/thumb/T800x0.q50/?fname=http%3A%2F%2Ft1.kakaocdn.net%2Ffiy_reboot%2Fplace%2F8C44BF93B4974FF9B3D9BD7E0F01CA98	2.2	37.4999089193775	127.028638780625	서울 강남구 강남대로96길 20	02-508-7063	월~금 12:00 ~ 24:00 / 토,일 10:00 ~ 24:00	http://www.secretgardenescape.com/
카페시그니처	//t1.kakaocdn.net/thumb/T800x0.q50/?fname=http%3A%2F%2Ft1.daumcdn.net%2Fplace%2F218AD06A11FA4E8A9B89F856E6D5596E	4.0	37.5076609622122	127.035988794034	서울 강남구 봉은사로 218	070-5208-7511	매일 07:00 ~ 24:00	https://instagram.com/signature_cafe_official
라메종드플레	//t1.kakaocdn.net/thumb/T800x0.q50/?fname=http%3A%2F%2Ft1.daumcdn.net%2Fcfile%2F2426213D576255E40E	4.2	37.5030243123642	127.036239899315	서울 강남구 논현로 520	02-567-4040	매일 09:00 ~ 22:00	NULL
카페 리퍼크	//t1.kakaocdn.net/thumb/T800x0.q50/?fname=http%3A%2F%2Ft1.daumcdn.net%2Fplace%2F558FBBDF00364392A2B231A8F9AE6C68	4.2	37.4970473257339	127.028628640989	서울 강남구 강남대로 382	0507-1366-8208	월~금 07:30 ~ 21:00 / 토,일 10:00 ~ 19:00	https://www.kalisco.co.kr
스타벅스 역삼포스코점	//t1.kakaocdn.net/thumb/T800x0.q50/?fname=http%3A%2F%2Ft1.daumcdn.net%2Fcfile%2F211F225055E006D308	3.8	37.499466146164735	127.03350595398784	서울 강남구 테헤란로 134	1522-3232	월~금 07:00 ~ 22:00 / 토,일 09:00 ~ 21:00	http://www.starbucks.co.kr
투썸플레이스 역삼점	//t1.kakaocdn.net/thumb/T800x0.q50/?fname=http%3A%2F%2Ft1.kakaocdn.net%2Ffiy_reboot%2Fplace%2F22BB91E2773D47888F0595724C00FB2B	2.8	37.497560016003405	127.0381325788306	서울 강남구 논현로 419	02-565-2388	월~목 07:00 ~ 21:30 / 금~일 08:00 ~ 21:30	http://www.twosome.co.kr
포레스트힐링카페	//t1.kakaocdn.net/thumb/T800x0.q50/?fname=http%3A%2F%2Ft1.daumcdn.net%2Fplace%2F0416597404B44625B6EC8DE4661815B8	3.1	37.5027747231627	127.039098789942	서울 강남구 테헤란로33길 15	NULL	월~금 08:00 ~ 23:00 / 토,일 11:00 ~ 21:00	NULL
잇테이블	//t1.kakaocdn.net/thumb/T800x0.q50/?fname=http%3A%2F%2Ft1.daumcdn.net%2Fplace%2FA37C8D836B7A45E78C738CFBD97BAC43	3.6	37.4940613999847	127.035254027994	서울 강남구 역삼로14길 8	02-552-6662	월~금 08:00 ~ 01:00 / 토,일 10:00 ~ 01:00	https://instagram.com/it_table
아지트룸카페	//t1.kakaocdn.net/thumb/T800x0.q50/?fname=http%3A%2F%2Ft1.daumcdn.net%2Fplace%2F3AC4485D0C6D434CA006C3985ABF63C3	3.2	37.50113103486012	127.02715096556976	서울 강남구 테헤란로1길 42	NULL	월,화,수,목,일 10:00 ~ 23:30 / 금,토 00:00 ~ 24:00	NULL
이디야커피 역삼플래티넘점	//t1.kakaocdn.net/thumb/T800x0.q50/?fname=http%3A%2F%2Ft1.daumcdn.net%2Fplace%2FEED7455F8F6048E49D906E93B99AD02F	4.3	37.4952592119775	127.030686059341	서울 강남구 테헤란로4길 46	02-2051-5698	월~금 07:30 ~ 22:00 / 토 08:00 ~ 21:00	http://www.ediya.com
커피빈 강남대로센터점	//t1.kakaocdn.net/thumb/T800x0.q50/?fname=http%3A%2F%2Ft1.daumcdn.net%2Fplace%2F132F29835E5B4551AEF03AB15F642463	3.7	37.5019169544599	127.026074609464	서울 강남구 강남대로 442	02-565-3345	매일 07:00 ~ 23:00	http://www.coffeebeankorea.com
투썸플레이스 강남IBC점	//t1.kakaocdn.net/thumb/T800x0.q50/?fname=http%3A%2F%2Ft1.daumcdn.net%2Fplace%2F81E3E1FB25DF4F08B1B0FB0F1B081634	2.9	37.499726318926	127.03100453704754	서울 강남구 테헤란로7길 8	02-564-7235	매일 08:00 ~ 22:00	http://www.twosome.co.kr
커피효과	//t1.kakaocdn.net/thumb/T800x0.q50/?fname=http%3A%2F%2Ft1.daumcdn.net%2Fplace%2FD2826C6215E442E79E45ED9BB2327E4A	3.0	37.494457106157	127.037642490143	서울 강남구 역삼로20길 12	NULL	월~금 08:00 ~ 23:00 / 토,일 10:00 ~ 23:00	https://www.instagram.com/coffeehyogua_official/
알라카르테 강남점	//t1.kakaocdn.net/thumb/T800x0.q50/?fname=http%3A%2F%2Ft1.daumcdn.net%2Fplace%2F8BAA7C15138A442EB07274AA15BC0A69	3.9	37.50438792234464	127.0349501303962	서울 강남구 논현로 539	02-556-2127	월~토 08:00 ~ 18:00	http://alacarte.co.kr/
이디야커피 선릉역점	//t1.kakaocdn.net/thumb/T800x0.q50/?fname=http%3A%2F%2Ft1.daumcdn.net%2Fplace%2F7C0192428C80484B9368533D8A3B77F4	4.0	37.5038444536162	127.04821031412136	서울 강남구 테헤란로 332	02-558-6467	월~금 07:00 ~ 23:00 / 토,일 08:00 ~ 22:00	https://ediya.com
스타벅스 구역삼사거리점	//t1.kakaocdn.net/thumb/T800x0.q50/?fname=http%3A%2F%2Ft1.daumcdn.net%2Fplace%2F16A394B138194477AC6595AF65D57B91	3.5	37.4958730842435	127.038891641479	서울 강남구 논현로 401	1522-3232	월~금 07:00 ~ 22:00 / 토 08:00 ~ 20:00 / 일 09:00 ~ 19:00	http://www.starbucks.co.kr
헤이스테이카페	//t1.kakaocdn.net/thumb/T800x0.q50/?fname=http%3A%2F%2Ft1.daumcdn.net%2Fplace%2F291065125F8544CF963B9CA8BE4BD301	NULL	37.5026859864115	127.027942053379	서울 강남구 봉은사로6길 39	02-555-7679	매일 11:00 ~ 22:30	NULL
베이커스트 브라운	//t1.kakaocdn.net/thumb/T800x0.q50/?fname=http%3A%2F%2Ft1.daumcdn.net%2Fplace%2FE26B0343E44741599E0E936F08475DC4	2.7	37.5025005500638	127.027210270044	서울 강남구 강남대로102길 21	NULL	매일 11:00 ~ 23:00	NULL
시티갤러리카페	//t1.kakaocdn.net/thumb/T800x0.q50/?fname=http%3A%2F%2Ft1.daumcdn.net%2Fplace%2FCC9B37BB6A3D44169BB928A55399198D	3.6	37.4956064081473	127.03288792724172	서울 강남구 역삼로7길 22	NULL	월~금 07:00 ~ 23:00 / 토 09:00 ~ 23:00 / 일 09:00 ~ 22:00	NULL
퍼즐팩토리 강남점	//t1.kakaocdn.net/thumb/T800x0.q50/?fname=http%3A%2F%2Ft1.kakaocdn.net%2Fmystore%2F9F1069B5710F4FC89FA02470463305D1	3.6	37.5020501300304	127.026848209914	서울 강남구 강남대로102길 13	010-7569-3531	월~금 13:40 ~ 22:30 / 토,일 10:30 ~ 22:30	http://www.puzzlefactory.co.kr/
문화시민	//t1.kakaocdn.net/thumb/T800x0.q50/?fname=http%3A%2F%2Ft1.daumcdn.net%2Fplace%2F7CB922888ED04A5CB2066412EDBA8EAF	3.9	37.491100962412	127.034329934797	서울 강남구 강남대로62길 35	NULL	매일 12:00 ~ 20:00	https://app.catchtable.co.kr/ct/shop/kw4295
집사의하루 강남점	//t1.kakaocdn.net/thumb/T800x0.q50/?fname=http%3A%2F%2Ft1.daumcdn.net%2Flocalfiy%2Fsearchregister_1186979530	4.8	37.5027781856314	127.026658473015	서울 강남구 봉은사로4길 32	02-555-7984	월~금 12:00 ~ 22:00 / 토,일 11:00 ~ 22:00	http://instagram.com/catcafejipssauiharu
라까사로사 (휴업중)	//t1.kakaocdn.net/thumb/T800x0.q50/?fname=http%3A%2F%2Ft1.kakaocdn.net%2Ffiy_reboot%2Fplace%2FE85C2CDEAE0042668C985188BCAA3E27	5.0	37.5074863372698	127.04589634959952	서울 강남구 선릉로 545	NULL	NULL	NULL
빌리엔젤 신라스테이점	//t1.kakaocdn.net/thumb/T800x0.q50/?fname=http%3A%2F%2Ft1.daumcdn.net%2Fcfile%2F2634134956B425430D	NULL	37.5047129052209	127.041393402223	서울 강남구 언주로 517	02-538-8267	월~금 08:00 ~ 22:00 / 토,일 09:00 ~ 09:00	http://www.billyangel.co.kr
바나프레소 선릉역사거리점	//t1.kakaocdn.net/thumb/T800x0.q50/?fname=http%3A%2F%2Ft1.daumcdn.net%2Fplace%2F6EE5A3DCE77F4748A6559B27D2F233C6	2.8	37.50465262198	127.048292263367	서울 강남구 테헤란로 335	070-8998-8947	매일 07:00 ~ 23:00 / 매일 라스트오더 ~ 22:30	https://www.banapresso.com
바나프레소 강남역점	//t1.kakaocdn.net/thumb/T800x0.q50/?fname=http%3A%2F%2Ft1.daumcdn.net%2Fplace%2F1921E50C0E8145E18FB619D3187416F7	4.1	37.498975256536	127.02953408158	서울 강남구 테헤란로 113	070-8998-8953	월~금 06:30 ~ 23:00 / 토,일 07:00 ~ 23:00 / 매일 라스트오더 ~ 22:30	https://www.banapresso.com/
스타벅스 GS타워점	//t1.kakaocdn.net/thumb/T800x0.q50/?fname=http%3A%2F%2Ft1.daumcdn.net%2Fplace%2FB53F9D37F86C48EABE20F0ED7E852088	3.9	37.5017950824802	127.03707166469	서울 강남구 논현로 508	1522-3232	월~금 07:00 ~ 19:00 / 토,일 09:00 ~ 17:00	http://www.starbucks.co.kr
할리스 강남역2점	//t1.kakaocdn.net/thumb/T800x0.q50/?fname=http%3A%2F%2Ft1.daumcdn.net%2Flocal%2FkakaomapPhoto%2Freview%2Ff901f70fe2af6d9f0202f796c6cc7061f1e2dd5d%3Foriginal	3.7	37.5003958523888	127.02698332585	서울 강남구 강남대로 422	02-568-9056	월,화,수,목,일 09:00 ~ 24:00 / 금,토 09:00 ~ 02:00	https://www.hollys.co.kr
스타벅스 큰길타워	//t1.kakaocdn.net/thumb/T800x0.q50/?fname=http%3A%2F%2Ft1.daumcdn.net%2Fplace%2FEC86669ED1A84F6186B105E15284B2FA	3.0	37.50233444005635	127.04084924208225	서울 강남구 테헤란로 223	1522-3232	월~금 07:00 ~ 19:00 / 토 08:00 ~ 17:00 / 일 09:00 ~ 17:00	http://www.starbucks.co.kr
커피빈 선릉로93길점	NULL	4.3	37.505638478050166	127.0479083648042	서울 강남구 선릉로93길 6	02-552-3177	월~금 07:00 ~ 23:00 / 토 08:00 ~ 22:30 / 일 08:00 ~ 22:00	http://www.coffeebeankorea.com
키이스케이프 우주라이크점	NULL	5.0	37.4956788806596	127.031448411152	서울 강남구 테헤란로6길 46	010-8882-6082	매일 10:00 ~ 22:00	https://keyescape.co.kr
히히냥냥	//t1.kakaocdn.net/thumb/T800x0.q50/?fname=http%3A%2F%2Ft1.kakaocdn.net%2Ffiy_reboot%2Fplace%2FAE58A257AC774EFE92A7DF68D71DD36A	4.7	37.5018951126763	127.027042673467	서울 강남구 강남대로102길 14	02-552-2288	매일 12:00 ~ 22:00	https://www.instagram.com/catcafehhnn
더까페	//t1.kakaocdn.net/thumb/T800x0.q50/?fname=http%3A%2F%2Ft1.daumcdn.net%2Fcfile%2F126AD8374DCE04FA14	4.0	37.50301304610684	127.03154196243554	서울 강남구 강남대로110길 86	02-515-4933	월~금 09:00 ~ 21:00 / 토 10:00 ~ 21:00 / 일 10:00 ~ 19:00	https://thecafe4933.modoo.at/
갤러리카페 하나둘	//t1.kakaocdn.net/thumb/T800x0.q50/?fname=http%3A%2F%2Ft1.kakaocdn.net%2Ffiy_reboot%2Fplace%2F4671F6BB2595478F841D24B459478982	5.0	37.5046833149852	127.035410571585	서울 강남구 논현로 542	070-4281-8880	월~금 09:00 ~ 18:00 / 토 10:00 ~ 18:00	http://www.onetwo.pe.kr
공차 역삼점	NULL	1.8	37.5009957174449	127.034673737794	서울 강남구 강남대로94길 91	02-6326-4040	월~금 10:00 ~ 21:50 / 토,일 10:00 ~ 21:30	http://www.gong-cha.co.kr
카페온화 강남점	//t1.kakaocdn.net/thumb/T800x0.q50/?fname=http%3A%2F%2Ft1.daumcdn.net%2Fplace%2FAEAEA4BD058C4CD28A602AC20411C22F	3.5	37.5024393045619	127.027110725716	서울 강남구 봉은사로4길 37	NULL	매일 11:00 ~ 22:00 / 매일 라스트오더 ~ 21:00	https://www.instagram.com/onhwa_gangnam/
폴바셋 GFC점	//t1.kakaocdn.net/thumb/T800x0.q50/?fname=http%3A%2F%2Ft1.daumcdn.net%2Fplace%2F3F7DBFCBEFEE4EBBB409152194FEE853	3.1	37.5000581193953	127.036505357435	서울 강남구 테헤란로 152	02-2112-3887	월~금 07:30 ~ 21:00 / 토,일 11:00 ~ 18:00	http://www.baristapaulbassett.co.kr
헬로룸카페	//t1.kakaocdn.net/thumb/T800x0.q50/?fname=http%3A%2F%2Ft1.kakaocdn.net%2Ffiy_reboot%2Fplace%2F96A3E13757964DDCB0299B27AEC8AF33	2.2	37.5021077178398	127.027182985214	서울 강남구 강남대로102길 16	NULL	매일 00:00 ~ 24:00	NULL
스타벅스 역삼아레나빌딩점	//t1.kakaocdn.net/thumb/T800x0.q50/?fname=http%3A%2F%2Ft1.daumcdn.net%2Fplace%2F2A6A41F34352420B96A968C7FEB935BB	3.8	37.501139803827904	127.04311041790872	서울 강남구 언주로 425	1522-3232	매일 07:00 ~ 22:00	http://www.starbucks.co.kr
메가MGC커피 강남CGV점	//t1.kakaocdn.net/thumb/T800x0.q50/?fname=http%3A%2F%2Ft1.daumcdn.net%2Fplace%2F3CA2308CFF404CDB8B957A6103E4ADE6	2.0	37.50178894031359	127.02639574712532	서울 강남구 강남대로 438	02-555-0656	월~금 08:00 ~ 22:00 / 토,일 09:00 ~ 22:00	https://www.mega-mgccoffee.com/
오리지널팬케이크하우스 센터필드점	//t1.kakaocdn.net/thumb/T800x0.q50/?fname=http%3A%2F%2Ft1.daumcdn.net%2Flocalfiy%2F05EA3999664C49758EC68FD6203ECD72	3.9	37.50363170050348	127.0413882814928	서울 강남구 테헤란로 231	02-6985-7216	매일 08:00 ~ 20:00	http://www.originalpancakehouse.co.kr/
알렉산더커피스튜디오	//t1.kakaocdn.net/thumb/T800x0.q50/?fname=http%3A%2F%2Ft1.kakaocdn.net%2Fmystore%2FF04780213C8A4E59B213E2951C671B6B	4.7	37.505182521351	127.045756960348	서울 강남구 테헤란로51길 23	010-4181-4128	월~금 07:00 ~ 18:00 / 토 10:00 ~ 18:00	https://www.instagram.com/alexandercoffeestudio/
디저트39 강남 테헤란로점	//t1.kakaocdn.net/thumb/T800x0.q50/?fname=http%3A%2F%2Ft1.daumcdn.net%2Fplace%2FA15FAB7EFB9A44C0AC20D53667E99F0D	3.4	37.4977283224454	127.029298371216	서울 강남구 테헤란로4길 6	02-555-0390	월~토 07:00 ~ 22:00	http://www.dessert39.com
백억커피 강남점	//t1.kakaocdn.net/thumb/T800x0.q50/?fname=http%3A%2F%2Ft1.daumcdn.net%2Fplace%2FCB31617A3ECA4314AC8C93AABADC178E	1.0	37.4934486244642	127.035556793665	서울 강남구 역삼로14길 18	070-4833-1020	매일 00:00 ~ 24:00	NULL
스타벅스 역삼럭키점	//t1.kakaocdn.net/thumb/T800x0.q50/?fname=http%3A%2F%2Ft1.daumcdn.net%2Fcfile%2F220C924955E006C423	4.9	37.4922328473087	127.039400866037	서울 강남구 도곡로 183	1522-3232	월~금 07:00 ~ 20:00 / 토,일 08:00 ~ 20:00	http://www.starbucks.co.kr
메가MGC커피 역삼GFC점	//t1.kakaocdn.net/thumb/T800x0.q50/?fname=http%3A%2F%2Ft1.daumcdn.net%2Fplace%2FD54B7C35E043459FA7473F582AC189BA	1.0	37.49916403482871	127.0374209378493	서울 강남구 논현로 429	02-501-0656	월~금 07:30 ~ 22:00 / 토,일 09:00 ~ 22:00	https://www.mega-mgccoffee.com/
투썸플레이스 선릉ING점	//t1.kakaocdn.net/thumb/T800x0.q50/?fname=http%3A%2F%2Ft1.kakaocdn.net%2Ffiy_reboot%2Fplace%2F0884C20427ED44D293CB43748259AC51	4.2	37.503217294026136	127.04610296099298	서울 강남구 테헤란로 318	02-566-2388	월~금 07:00 ~ 18:00	http://www.twosome.co.kr
카페바이이브릭 강남본점	//t1.kakaocdn.net/thumb/T800x0.q50/?fname=http%3A%2F%2Ft1.kakaocdn.net%2Fmystore%2FF61FD408DD674B9DB61276D9B3B20CD2	4.7	37.49373046877851	127.03304202447065	서울 강남구 역삼로 122	02-555-9848	월~금 08:00 ~ 19:30 / 토,일 12:00 ~ 21:00	https://www.instagram.com/cafe_byibriq
셀렉커피랩	//t1.kakaocdn.net/thumb/T800x0.q50/?fname=http%3A%2F%2Ft1.daumcdn.net%2Fplace%2F68E15E2F380A4D07802C3C2100A880AA	4.6	37.5056934758663	127.040595470315	서울 강남구 테헤란로39길 50	0507-1403-6334	매일 00:00 ~ 24:00	https://www.instagram.com/selectcoffeelab/
본부케	//t1.kakaocdn.net/thumb/T800x0.q50/?fname=http%3A%2F%2Ft1.daumcdn.net%2Fplace%2FFA7060212B224784BE214EDEA26ABE4D	3.3	37.5030692402211	127.02652625623	서울 강남구 강남대로106길 11	NULL	월~토 10:30 ~ 23:00 / 월~토 라스트오더 ~ 22:40	NULL
투썸플레이스 역삼자이점	//t1.kakaocdn.net/thumb/T800x0.q50/?fname=http%3A%2F%2Ft1.kakaocdn.net%2Fmystore%2F89B220EDDDD449BB98915E97FFED9D28	NULL	37.5002747065111	127.04346954683	서울 강남구 언주로 419	02-2039-9366	월~금 08:00 ~ 21:00 / 토,일 09:00 ~ 21:00	NULL
빽다방 강남역태극당점	//t1.kakaocdn.net/thumb/T800x0.q50/?fname=http%3A%2F%2Ft1.kakaocdn.net%2Ffiy_reboot%2Fplace%2F763B53DA262B4F6BA02D3B86518EADC4	3.7	37.49521055643932	127.0306905627297	서울 강남구 테헤란로4길 46	02-501-8467	월~토 07:00 ~ 22:00 / 일 07:00 ~ 21:00	http://www.paikdabang.com
엠플라운지	//t1.kakaocdn.net/thumb/T800x0.q50/?fname=http%3A%2F%2Ft1.daumcdn.net%2Flocalfiy%2F9E3F4DC1310548A093165BBEB2450559	3.7	37.4962080772172	127.039439141257	서울 강남구 논현로 404	02-508-7847	월~금 18:00 ~ 01:00 / 일 18:00 ~ 24:00	http://www.mple.kr/
스타벅스 테헤란로아남타워점	//t1.kakaocdn.net/thumb/T800x0.q50/?fname=http%3A%2F%2Ft1.daumcdn.net%2Fplace%2FDE89F17CED654D3BB8D751943AAE35F5	4.9	37.50359439751481	127.0448478380021	서울 강남구 테헤란로 311	1522-3232	월~금 07:00 ~ 21:00 / 토,일 09:00 ~ 18:00	https://www.starbucks.co.kr
마이디주스 강남점	//t1.kakaocdn.net/thumb/T800x0.q50/?fname=http%3A%2F%2Ft1.daumcdn.net%2Fplace%2F84F621FDB2AF4AA1ACD839F1259382B8	4.4	37.50068016071785	127.0287205004465	서울 강남구 테헤란로5길 31	02-596-3379	매일 11:00 ~ 22:00	NULL
커피빈 역삼포스틸타워뒷점	//t1.kakaocdn.net/thumb/T800x0.q50/?fname=http%3A%2F%2Ft1.daumcdn.net%2Fplace%2F3C137842864B4CE6907958F347615AC1	4.8	37.49912896829196	127.0342092125734	서울 강남구 테헤란로20길 10	02-554-9962	월~금 07:00 ~ 22:00 / 토 08:00 ~ 22:00 / 일 09:00 ~ 20:00	http://www.coffeebeankorea.com
모벰버	//t1.kakaocdn.net/thumb/T800x0.q50/?fname=http%3A%2F%2Ft1.daumcdn.net%2Fplace%2F8175CFAB52E941D196E4AFEEDAE346F0	3.1	37.50501556701342	127.02966312973534	서울 강남구 봉은사로16길 17	02-568-0688	매일 10:00 ~ 23:00	http://movembercls.modoo.at
비트포비아 강남던전2	//t1.kakaocdn.net/thumb/T800x0.q50/?fname=http%3A%2F%2Ft1.kakaocdn.net%2Fmystore%2FB0EA0FE8A6B441458CC78440768B72C7	4.6	37.49628289411766	127.03014819829872	서울 강남구 테헤란로4길 32	02-501-0323	매일 10:00 ~ 24:00	https://www.xdungeon.net
키이스케이프 메모리컴퍼니	//t1.kakaocdn.net/thumb/T800x0.q50/?fname=http%3A%2F%2Ft1.daumcdn.net%2Fplace%2F35477539881F49E6A65D27E26F8C55BE	4.4	37.5042308224732	127.025684101999	서울 강남구 봉은사로2길 7	010-2637-6082	NULL	https://keyescape.co.kr
로흐	//t1.kakaocdn.net/thumb/T800x0.q50/?fname=http%3A%2F%2Ft1.daumcdn.net%2Flocalfiy%2Fsearchregister_2099789061	4.4	37.500852314644895	127.03198663165476	서울 강남구 테헤란로13길 17	010-6688-9326	월~금 12:00 ~ 20:00	https://www.instagram.com/l_or_seoul/
필메이트 강남점	//t1.kakaocdn.net/thumb/T800x0.q50/?fname=http%3A%2F%2Ft1.daumcdn.net%2Fplace%2FBA937F88052D41DC9A51D648D056F926	3.7	37.500148831189	127.027613147383	서울 강남구 테헤란로1길 28	NULL	매일 09:00 ~ 24:00	NULL
타브스 에스프레소바	//t1.kakaocdn.net/thumb/T800x0.q50/?fname=http%3A%2F%2Ft1.kakaocdn.net%2Fmystore%2F53AC97C92D05448F8601CF01F597472C	4.7	37.4917991823056	127.037494155815	서울 강남구 논현로63길 43	010-2394-1739	매일 10:00 ~ 18:00	https://instagram.com/tavs_espresso_bar
투썸플레이스 선릉로점	//t1.kakaocdn.net/thumb/T800x0.q50/?fname=http%3A%2F%2Ft1.daumcdn.net%2Fplace%2F1D401C1C1EF34DC983D6654DD6CF8238	3.0	37.50426314486919	127.04431442470607	서울 강남구 선릉로93길 54	02-6952-2688	월~금 07:00 ~ 22:00 / 토,일 08:00 ~ 22:00	https://www.twosome.co.kr
커피빈 강남역랭기지타워점	//t1.kakaocdn.net/thumb/T800x0.q50/?fname=http%3A%2F%2Ft1.daumcdn.net%2Fplace%2F8B5945DF6D664C0A809E1C23778F47C4	3.5	37.4964882946988	127.030261365191	서울 강남구 테헤란로4길 28	02-563-3655	월~금 07:00 ~ 21:00 / 토,일 07:30 ~ 21:00	http://www.coffeebeankorea.com
파브리끄 역삼GFC점	//t1.kakaocdn.net/thumb/T800x0.q50/?fname=http%3A%2F%2Ft1.daumcdn.net%2Flocalfiy%2Fsearchregister_1883893696	3.9	37.498835416763	127.036625766214	서울 강남구 역삼로17길 64	070-4151-4536	월~금 08:00 ~ 21:00 / 토,일 12:00 ~ 18:00	NULL
강남커피	//t1.kakaocdn.net/thumb/T800x0.q50/?fname=http%3A%2F%2Ft1.daumcdn.net%2Fplace%2F4890D5A205004F0E8AF521FFBD807891	3.6	37.5022952333225	127.026717109706	서울 강남구 강남대로102길 13-5	02-552-8522	매일 11:00 ~ 23:00	NULL
요거티 강남점	//t1.kakaocdn.net/thumb/T800x0.q50/?fname=http%3A%2F%2Ft1.kakaocdn.net%2Fmystore%2F6981EFC6A0EF4291ABA9440ACADC6514	4.0	37.4915021692198	127.036474054595	서울 강남구 도곡로13길 5	02-2135-1833	월~금 11:30 ~ 01:00 / 토,일 11:30 ~ 01:30	https://www.instagram.com/yogurtii_gangnam/
킷사텐 역삼점	//t1.kakaocdn.net/thumb/T800x0.q50/?fname=http%3A%2F%2Ft1.daumcdn.net%2Fplace%2FA4B6F2C74ECD4BC9901BEC24CCEC69EC	3.8	37.5001682012626	127.041482496126	서울 강남구 언주로85길 23-10	NULL	월~금 06:30 ~ 23:30 / 토,일 11:00 ~ 23:30	https://www.instagram.com/kissaten_yeoksam/
투썸플레이스 강남역삼로점	//t1.kakaocdn.net/thumb/T800x0.q50/?fname=http%3A%2F%2Ft1.kakaocdn.net%2Ffiy_reboot%2Fplace%2F8601A77980644D08BCF9BEC741F55BFF	3.5	37.49348920962056	127.03227976034132	서울 강남구 역삼로 118	02-564-0038	월~금 08:00 ~ 22:00 / 토,일 09:00 ~ 21:00	https://www.twosome.co.kr
빽다방 역삼역GS점	NULL	3.8	37.50289611236128	127.03706881624888	서울 강남구 봉은사로30길 73	02-565-0410	매일 07:30 ~ 18:00	http://www.paikdabang.com
바나프레소 선릉역점	//t1.kakaocdn.net/thumb/T800x0.q50/?fname=http%3A%2F%2Ft1.daumcdn.net%2Fplace%2F952B739C4DB34A08BAEB18DCD5A30600	5.0	37.50467037776242	127.04670892162538	서울 강남구 테헤란로51길 7	070-8998-8927	매일 07:00 ~ 23:00 / 매일 라스트오더 ~ 22:30	http://www.banapresso.com
파라노이드 강남뱅뱅 카페	//t1.kakaocdn.net/thumb/T800x0.q50/?fname=http%3A%2F%2Ft1.kakaocdn.net%2Fmystore%2F192ECAD9AFD3462FBD3D639DC7BC2EEA	4.3	37.49040156963425	127.0318668380734	서울 강남구 강남대로62길 3	02-6953-7228	월~금 07:30 ~ 21:00 / 토,일 11:00 ~ 19:00	https://www.instagram.com/paranoid.cafe/
메가MGC커피 강남역삼점	//t1.kakaocdn.net/thumb/T800x0.q50/?fname=http%3A%2F%2Ft1.daumcdn.net%2Fplace%2F78B00D846BDE46FAA708756A1200133A	5.0	37.4947612306328	127.03608776919424	서울 강남구 역삼로 156	02-566-1003	월~금 07:00 ~ 21:00 / 토,일 09:00 ~ 18:00	https://www.mega-mgccoffee.com/
할리스 역삼테헤란점	//t1.kakaocdn.net/thumb/T800x0.q50/?fname=http%3A%2F%2Ft1.daumcdn.net%2Fplace%2F82B891D3473E42D88F6B2BE21EFFB2F0	4.3	37.499955504667085	127.0331080974324	서울 강남구 테헤란로 131	02-501-3573	월~금 07:00 ~ 21:00 / 토 10:00 ~ 18:00	http://www.hollys.co.kr
더카페868	//t1.kakaocdn.net/thumb/T800x0.q50/?fname=http%3A%2F%2Ft1.daumcdn.net%2Fplace%2FFA7DDF7C017E4C8DA590EB5B9165290D	1.9	37.4966903753622	127.02924820848	서울 강남구 테헤란로2길 22	02-568-8688	NULL	NULL
타스647	//t1.kakaocdn.net/thumb/T800x0.q50/?fname=http%3A%2F%2Ft1.daumcdn.net%2Fplace%2FCD723DBDD13F4A7EA3874E7805774FDF	3.0	37.50046653994461	127.03251459888811	서울 강남구 테헤란로13길 12	NULL	NULL	NULL
소디스에스프레소바 역삼점	//t1.kakaocdn.net/thumb/T800x0.q50/?fname=http%3A%2F%2Ft1.daumcdn.net%2Fplace%2F0F5A04D6BE154F90956D0D74A757FA39	4.7	37.49859275972504	127.04283528188516	서울 강남구 역삼로37길 11	NULL	월~금 07:30 ~ 22:00 / 토,일 11:00 ~ 18:00	https://www.instagram.com/sodis_espressobar_yeoksam
레뽀드라라	//t1.kakaocdn.net/thumb/T800x0.q50/?fname=http%3A%2F%2Ft1.daumcdn.net%2Fplace%2FAFCE256713A540B2A05F16C18CB6CF77	4.7	37.5009607961858	127.030625061496	서울 강남구 테헤란로7길 22	02-568-3177	월~금 07:30 ~ 21:00 / 토,일 11:00 ~ 21:00	NULL
바나프레소 선정릉점	//t1.kakaocdn.net/thumb/T800x0.q50/?fname=http%3A%2F%2Ft1.daumcdn.net%2Fplace%2FA2026B38D21641C384F3F54EC34B31FA	3.3	37.50999466124375	127.04371383381611	서울 강남구 선릉로 577	070-8998-8923	월,목,금,토,일 07:00 ~ 23:00 / 화,수 07:00 ~ 22:30	http://www.banapresso.com
퍼햅스 강남본점	//t1.kakaocdn.net/thumb/T800x0.q50/?fname=http%3A%2F%2Ft1.daumcdn.net%2Fplace%2F53FD4CF2E0C94E27B41349FA56A41E77	3.4	37.5004787946097	127.039596321144	서울 강남구 논현로86길 27	02-554-6546	매일 07:00 ~ 22:00	NULL
세컨브레스커피	//t1.kakaocdn.net/thumb/T800x0.q50/?fname=http%3A%2F%2Ft1.daumcdn.net%2Fplace%2FD7C8CA47AB594D24963E2C9B9727DFFA	2.7	37.5056323958801	127.034318492097	서울 강남구 논현로 555	NULL	매일 07:00 ~ 03:00	NULL
빽다방 선릉역1호점	NULL	3.1	37.50481264196847	127.04694764465414	서울 강남구 테헤란로51길 10	02-557-0410	월~금 07:30 ~ 22:00 / 토 09:30 ~ 21:30	http://www.paikdabang.com
카페진정성 서울역삼	//t1.kakaocdn.net/thumb/T800x0.q50/?fname=http%3A%2F%2Ft1.kakaocdn.net%2Fmystore%2F9F3A632E1C744474B2FD044103455037	5.0	37.49515611281	127.038186766889	서울 강남구 역삼로 172	070-8833-6311	월~금 09:00 ~ 19:00	http://www.cafejinjungsung.com
컴포즈커피 역삼테헤란로점	//t1.kakaocdn.net/thumb/T800x0.q50/?fname=http%3A%2F%2Ft1.kakaocdn.net%2Ffiy_reboot%2Fplace%2F95923C7A247140F8B45C580503B11C46	3.9	37.49762462957813	127.03300755264736	서울 강남구 테헤란로10길 25	02-558-0716	월~금 07:40 ~ 19:50 / 토,일 09:00 ~ 18:45	http://www.composecoffee.com/
가가린철우 사주카페	//t1.kakaocdn.net/thumb/T800x0.q50/?fname=http%3A%2F%2Ft1.daumcdn.net%2Flocalfiy%2F91B3719EE95A459C8CEAF8E256EDC565	2.1	37.5006983920023	127.027838400195	서울 강남구 강남대로98길 14	02-538-4984	매일 13:00 ~ 23:00	NULL
세븐클루스 강남2호점	NULL	1.5	37.50122125335523	127.0266330393506	서울 강남구 강남대로 432	010-2617-6561	월~금 12:00 ~ 23:00 / 토,일 10:00 ~ 23:00	http://www.sevenclues.com
제네베라 스페이스	//t1.kakaocdn.net/thumb/T800x0.q50/?fname=http%3A%2F%2Ft1.daumcdn.net%2Fplace%2FB38E54E3E2AD4E81B8BD1C9AE664AA08	4.3	37.50157912503619	127.03615551274272	서울 강남구 논현로 507	02-6953-6961	월~토 08:00 ~ 19:00	https://geneveraspace.modoo.at/
커피빈 역삼역4번출구점	NULL	4.3	37.5005163264173	127.03486350798	서울 강남구 테헤란로 143	02-508-1137	월~금 07:00 ~ 22:00 / 토,일 08:00 ~ 20:00	http://www.coffeebeankorea.com
엠플러스엠	//t1.kakaocdn.net/thumb/T800x0.q50/?fname=http%3A%2F%2Ft1.kakaocdn.net%2Fmystore%2F4D74293FCB534C1D86653D76D88ABA96	4.0	37.508871312936	127.043157843025	서울 강남구 봉은사로50길 18	02-6487-7939	월~금 10:00 ~ 22:00 / 토,일 12:00 ~ 22:00	NULL
포인트나인 강남점	//t1.kakaocdn.net/thumb/T800x0.q50/?fname=http%3A%2F%2Ft1.kakaocdn.net%2Ffiy_reboot%2Fplace%2F515979F549BD46D4A018DED511D02968	4.8	37.5034283090159	127.028386792542	서울 강남구 강남대로102길 40	02-556-9998	매일 11:00 ~ 24:00	http://point-nine.com
르와조 역삼	//t1.kakaocdn.net/thumb/T800x0.q50/?fname=http%3A%2F%2Ft1.daumcdn.net%2Fplace%2FAE4EE48832B4403CBDF45CF4F817320F	4.3	37.502421900337	127.035044212301	서울 강남구 논현로95길 10	NULL	월~금 08:00 ~ 21:00 / 토,일 10:00 ~ 21:00	http://leoiseau.co.kr/
원퍼밀	//t1.kakaocdn.net/thumb/T800x0.q50/?fname=http%3A%2F%2Ft1.daumcdn.net%2Fplace%2F0EA12819DF2F4C8182E024F5C2E79288	3.9	37.502931452533296	127.02622990109884	서울 강남구 강남대로106길 7	070-8844-1591	월~토 08:00 ~ 22:10 / 일 09:00 ~ 22:10 / 매일 라스트오더 ~ 22:00	https://www.instagram.com/onepermilcoffee
쁠랑커피	//t1.kakaocdn.net/thumb/T800x0.q50/?fname=http%3A%2F%2Ft1.daumcdn.net%2Fplace%2F8192EDA1995E4D36AA17178FAC282B2C	3.7	37.4981095474556	127.032369956726	서울 강남구 테헤란로10길 16	NULL	NULL	NULL
이디야커피 역삼점	//t1.kakaocdn.net/thumb/T800x0.q50/?fname=http%3A%2F%2Ft1.daumcdn.net%2Fplace%2F02A97D5B584B4B1D97E0CA716C7A2691	4.2	37.4958184299256	127.040655712749	서울 강남구 논현로72길 13	02-565-0372	월~금 08:00 ~ 22:00 / 토,일 09:00 ~ 22:00	https://www.ediya.com
카페로스터제임스	//t1.kakaocdn.net/thumb/T800x0.q50/?fname=http%3A%2F%2Ft1.daumcdn.net%2Fplace%2F7BBFF7CAA7514AAAB0E8510280FACED8	4.3	37.495235879026	127.036679418699	서울 강남구 역삼로 161	02-569-4825	월~금 08:00 ~ 22:00	NULL
카페팔라우	//t1.kakaocdn.net/thumb/T800x0.q50/?fname=http%3A%2F%2Ft1.daumcdn.net%2Flocalfiy%2FE08333C9866F417785D0E4BFC9766721	5.0	37.5063064568506	127.039720415	서울 강남구 논현로102길 57	02-567-8821	월~금 08:00 ~ 22:00(평일 런치타임 11:30~14:00)	NULL
블루샥 서울역삼점	//t1.kakaocdn.net/thumb/T800x0.q50/?fname=http%3A%2F%2Ft1.daumcdn.net%2Fplace%2F53789C515867480BB4FC37B50E9C61FB	2.4	37.5021691542793	127.03937894452	서울 강남구 테헤란로33길 5	02-538-0704	NULL	http://www.blushaak.co.kr/
메가MGC커피 역삼래미안점	//t1.kakaocdn.net/thumb/T800x0.q50/?fname=http%3A%2F%2Ft1.daumcdn.net%2Fplace%2FA0E3FC2C2E47429682A201F5C28C5878	2.3	37.49586305738804	127.04667516495736	서울 강남구 언주로 314	NULL	매일 10:00 ~ 21:00	https://www.mega-mgccoffee.com
유로스커피 로스터스 센터필드점	//t1.kakaocdn.net/thumb/T800x0.q50/?fname=http%3A%2F%2Ft1.kakaocdn.net%2Ffiy_reboot%2Fplace%2F0F02C394C135412DB15CB8570656EF75	3.9	37.5028210376727	127.04069117577	서울 강남구 테헤란로37길 7	02-563-9998	월~금 07:00 ~ 21:00	http://euroscoffee.com/
커피스니퍼 센터필드점	//t1.kakaocdn.net/thumb/T800x0.q50/?fname=http%3A%2F%2Ft1.daumcdn.net%2Fplace%2F0C733D3051DF487E95B8E184BAA603E0	3.5	37.50352357034931	127.0414153645858	서울 강남구 테헤란로 231	02-6985-7215	매일 08:00 ~ 20:00	http://koffeesniffer.kr/
카페피노사	NULL	0.0	37.5045926253804	127.034354207039	서울 강남구 논현로101길 8	02-567-0036	월~목 11:00 ~ 22:30 / 금 11:00 ~ 22:00 / 토 11:00 ~ 21:30	https://www.facebook.com/%ED%94%BC%EB%85%B8%EC%82%AC-pinosa-1242499972496964
어야가자	//t1.kakaocdn.net/thumb/T800x0.q50/?fname=http%3A%2F%2Ft1.daumcdn.net%2Flocalfiy%2Fsearchregister_1016740351	3.8	37.50661278025657	127.0397748651019	서울 강남구 테헤란로39길 66	0507-1418-0809	매일 10:00 ~ 21:30	https://www.instagram.com/a.yagaja/
금성커피	//t1.kakaocdn.net/thumb/T800x0.q50/?fname=http%3A%2F%2Ft1.daumcdn.net%2Flocalfiy%2Fsearchregister_1086979168	4.4	37.49161496086599	127.03283755399713	서울 강남구 도곡로3길 22	010-4548-0840	월~금 08:00 ~ 22:00 / 토,일 12:00 ~ 21:00	NULL
컴포즈커피 강남역센트럴애비뉴점	NULL	1.8	37.49768860431321	127.02959464136396	서울 강남구 테헤란로4길 6	NULL	매일 07:00 ~ 22:00	http://www.composecoffee.com/
빽다방 역삼테헤란로점	//t1.kakaocdn.net/thumb/T800x0.q50/?fname=http%3A%2F%2Ft1.daumcdn.net%2Fplace%2F3160F27835034E218C559EB3AD75DD62	3.8	37.49759309056378	127.03302110908405	서울 강남구 테헤란로10길 25	02-553-2111	월~금 08:00 ~ 20:00 / 토,일 11:00 ~ 20:00	http://www.paikdabang.com
피그커피	//t1.kakaocdn.net/thumb/T800x0.q50/?fname=http%3A%2F%2Ft1.kakaocdn.net%2Fmystore%2FBF2C2A43167B4F51A5A7AFDC83246AAA	4.5	37.5051350280607	127.040081705916	서울 강남구 언주로97길 15	0507-1320-3349	월~금 07:30 ~ 19:30	https://www.instagram.com/fig_coffee
컴포즈커피 강남역사점	//t1.kakaocdn.net/thumb/T800x0.q50/?fname=http%3A%2F%2Ft1.daumcdn.net%2Fplace%2FEE5709A28FE1450B9E1181B67817AFD2	4.1	37.49862242050112	127.02806380459614	서울 강남구 테헤란로 101	NULL	월~토 07:30 ~ 20:30 / 일 08:00 ~ 20:30	http://www.composecoffee.com
카페인중독 역삼점	//t1.kakaocdn.net/thumb/T800x0.q50/?fname=http%3A%2F%2Ft1.kakaocdn.net%2Fmystore%2FEBB7A998ACBB48A0851CC9C591341597	4.4	37.50408483453287	127.03303527759888	서울 강남구 봉은사로20길 46	1522-6133	화~일 10:30 ~ 03:30 / 월 10:30 ~ 18:30	https://카페인중독.com
카페드나탈리 역삼점	//t1.kakaocdn.net/thumb/T800x0.q50/?fname=http%3A%2F%2Ft1.kakaocdn.net%2Ffiy_reboot%2Fplace%2FB2B171AB805C41799CD38491DF859226	4.0	37.4986351755817	127.034351477634	서울 강남구 테헤란로20길 16	02-2051-5788	월~금 09:00 ~ 18:00	NULL
카페908 한티점	NULL	2.5	37.4960953888835	127.05132870473	서울 강남구 도곡로 323	02-552-0908	매일 08:00 ~ 22:00	NULL
바나프레소 역삼GFC점	//t1.kakaocdn.net/thumb/T800x0.q50/?fname=http%3A%2F%2Ft1.daumcdn.net%2Fplace%2F8F701C60C6744D3585F800DDCD973C64	4.1	37.4996186252325	127.035862797729	서울 강남구 테헤란로26길 10	070-8998-8919	월~토 07:00 ~ 22:00 / 일 07:00 ~ 23:00 / 월~토 라스트오더 ~ 21:30 / 일 라스트오더 ~ 22:30	http://www.banapresso.com
메가MGC커피 역삼테헤란로점	//t1.kakaocdn.net/thumb/T800x0.q50/?fname=http%3A%2F%2Ft1.daumcdn.net%2Fplace%2F92279AC40A0C4A47BADCF2A3810E23D0	1.0	37.4981875307959	127.033812979016	서울 강남구 논현로85길 52	02-501-9007	NULL	https://www.mega-mgccoffee.com/
메가MGC커피 역삼역점	NULL	3.0	37.5016019404803	127.035194241475	서울 강남구 테헤란로25길 15	02-554-9887	NULL	https://www.mega-mgccoffee.com/
카페놀다	//t1.kakaocdn.net/thumb/T800x0.q50/?fname=http%3A%2F%2Ft1.kakaocdn.net%2Ffiy_reboot%2Fplace%2FC62D4D77F0E44A4CBB3911C2F4AC54FA	4.1	37.49099248376	127.035539798717	서울 강남구 도곡로 143	02-565-1916	월~금 08:00 ~ 21:00 / 토 09:00 ~ 19:00	https://www.instagram.com/cafe.nolda
로스트엔트리	//t1.kakaocdn.net/thumb/T800x0.q50/?fname=http%3A%2F%2Ft1.daumcdn.net%2Fplace%2FE3A30EA5B76A4A4B966B1F016C4B2575	3.7	37.50126562471338	127.04148762690522	서울 강남구 테헤란로38길 10	NULL	NULL	NULL
엑소더스 방탈출카페 강남1호점	//t1.kakaocdn.net/thumb/T800x0.q50/?fname=http%3A%2F%2Ft1.kakaocdn.net%2Fmystore%2F5DD78D5221F3456684EF4EC11DCE3966	3.7	37.5015995130162	127.027345653498	서울 강남구 봉은사로18길 80	0507-1422-8581	매일 10:00 ~ 23:30	https://exodusescape.co.kr
포인트나인 강남2호점	//t1.kakaocdn.net/thumb/T800x0.q50/?fname=http%3A%2F%2Ft1.daumcdn.net%2Fplace%2F73C2B00F27574B2E867DA3B4519E4164	5.0	37.5028248781288	127.027357409787	서울 강남구 봉은사로6길 34	02-508-1211	매일 10:30 ~ 23:30	https://point-nine.com/
메가MGC커피 역삼대로점	//t1.kakaocdn.net/thumb/T800x0.q50/?fname=http%3A%2F%2Ft1.daumcdn.net%2Fplace%2FA86C09745A8142738B32E3D46FAF2563	3.0	37.5014291767135	127.040127223413	서울 강남구 테헤란로 216	02-558-8111	월~금 07:00 ~ 17:00 / 토 09:00 ~ 17:00	https://www.mega-mgccoffee.com/
카페꼼마 역삼마크로젠점	//t1.kakaocdn.net/thumb/T800x0.q50/?fname=http%3A%2F%2Ft1.kakaocdn.net%2Ffiy_reboot%2Fplace%2FCE4DDBF31407403D87C1B3569FAD1567	3.7	37.5020212966621	127.042254813273	서울 강남구 테헤란로 238	02-6205-1010	월~금 07:30 ~ 19:00 / 토,일 10:30 ~ 19:00	https://cafecomma.com
빽다방 강남역CGV점	//t1.kakaocdn.net/thumb/T800x0.q50/?fname=http%3A%2F%2Ft1.kakaocdn.net%2Fmystore%2F33C2C10B8DC243C5A2E1E9AD710F245D	3.4	37.5014644241474	127.027076445684	서울 강남구 테헤란로1길 48	02-566-5353	월~금 07:00 ~ 22:00 / 토 08:00 ~ 22:00 / 일 09:00 ~ 22:00	http://paikdabang.com/
만랩커피 역삼점	//t1.kakaocdn.net/thumb/T800x0.q50/?fname=http%3A%2F%2Ft1.daumcdn.net%2Fplace%2FD7BBBF9F3DCF4036B75311DFC178EF36	4.6	37.4981776675135	127.033645606004	서울 강남구 논현로85길 52	02-564-6644	월~금 07:00 ~ 21:00 / 토 08:00 ~ 19:00	http://www.10000lab.com
공차 강남역점	//t1.kakaocdn.net/thumb/T800x0.q50/?fname=http%3A%2F%2Ft1.kakaocdn.net%2Ffiy_reboot%2Fplace%2FEB7CFF8C38B247CD8C812B2801EC6E97	3.3	37.49798908894673	127.0277424016828	서울 강남구 강남대로 지하 396	02-569-7344	월~토 07:30 ~ 23:00 / 일 08:00 ~ 22:00	http://www.gong-cha.co.kr
카페밀브리지	//t1.kakaocdn.net/thumb/T800x0.q50/?fname=http%3A%2F%2Ft1.daumcdn.net%2Fcfile%2F277E5F43583BEA0016	3.8	37.4933020516827	127.031345642983	서울 강남구 역삼로 112	NULL	월~금 09:00 ~ 16:30	NULL
카페꼬미	NULL	3.8	37.5066398508003	127.044701499297	서울 강남구 테헤란로53길 47	070-8118-1528	매일 11:00 ~ 01:00	NULL
슬로우커피	//t1.kakaocdn.net/thumb/T800x0.q50/?fname=http%3A%2F%2Ft1.kakaocdn.net%2Ffiy_reboot%2Fplace%2FA4B614777D1B4861AC8B56C6F031EF39	4.9	37.49425264963623	127.03445350476828	서울 강남구 역삼로 136	010-5917-0362	월~금 10:00 ~ 02:00 / 토,일 10:00 ~ 24:00	https://www.instagram.com/slowcoffee_seoul/
커피빈 역삼동태광타워점	//t1.kakaocdn.net/thumb/T800x0.q50/?fname=http%3A%2F%2Ft1.daumcdn.net%2Fplace%2F811FACD72AE74CF39645E75DDF15198C	5.0	37.50111839947965	127.03992123093178	서울 강남구 테헤란로34길 6	02-569-9867	월~금 07:00 ~ 21:00 / 토,일 09:00 ~ 20:00	http://www.coffeebeankorea.com
tiny	//t1.kakaocdn.net/thumb/T800x0.q50/?fname=http%3A%2F%2Ft1.kakaocdn.net%2Fmystore%2FCAE9A3F95E984B75BC14C584FBA62B71	4.0	37.5032060488908	127.027160764517	서울 강남구 강남대로106길 19	1644-0337	매일 10:00 ~ 22:00	NULL
스멜로우	//t1.kakaocdn.net/thumb/T800x0.q50/?fname=http%3A%2F%2Ft1.daumcdn.net%2Fplace%2F5FE40338C8FC4B688AF5F33B7B331640	3.8	37.496519586666885	127.03119658554628	서울 강남구 테헤란로6길 32	NULL	월~금 07:30 ~ 21:00 / 일 11:00 ~ 21:00	https://www.instagram.com/smellowcafe/
벙커616	//t1.kakaocdn.net/thumb/T800x0.q50/?fname=http%3A%2F%2Ft1.daumcdn.net%2Fplace%2FA541A865519B4DF091DF097781089EEE	3.4	37.5037402381523	127.027622386689	서울 강남구 강남대로110길 34	NULL	매일 12:30 ~ 20:00	NULL
바나프레소 언주역점	//t1.kakaocdn.net/thumb/T800x0.q50/?fname=http%3A%2F%2Ft1.daumcdn.net%2Fplace%2FC9810F1D0A3C4370A1EE3C519D3E8569	4.4	37.5071298806178	127.034269413446	서울 강남구 논현로 570	070-8998-8977	월~금 07:00 ~ 23:00 / 토,일 07:00 ~ 21:00 / 월~금 라스트오더 ~ 22:30 / 토,일 라스트오더 ~ 20:30	https://banapresso.com/
키이스케이프 로그인1	NULL	5.0	37.500734399109	127.027978646062	서울 강남구 강남대로98길 16	010-5544-7839	NULL	https://keyescape.co.kr/
금커피별빙수 역삼점	//t1.kakaocdn.net/thumb/T800x0.q50/?fname=http%3A%2F%2Ft1.daumcdn.net%2Fplace%2F40B73AF020CD4E31AB68073FD9768541	5.0	37.49367242179783	127.03735034973376	서울 강남구 논현로67길 32	02-553-7009	매일 10:00 ~ 03:30	http://goldcoffee.co.kr/
무원	//t1.kakaocdn.net/thumb/T800x0.q50/?fname=http%3A%2F%2Ft1.kakaocdn.net%2Fmystore%2F4AD3565B88EB49D1B64697F003D5E382	4.3	37.5028811741021	127.041356200887	서울 강남구 테헤란로 231	02-6985-7255	월~금 08:00 ~ 21:00 / 토,일 10:00 ~ 21:00	https://www.instagram.com/cafe.muwon/
바나프레소 테헤란로점	//t1.kakaocdn.net/thumb/T800x0.q50/?fname=http%3A%2F%2Ft1.kakaocdn.net%2Ffiy_reboot%2Fplace%2FE53E6EB6532E414B83D4DEC5F2EFEFAD	3.8	37.50113847486111	127.03916466061304	서울 강남구 테헤란로 208	070-8998-8941	월~금 07:00 ~ 21:00 / 토 09:00 ~ 17:00 / 월~금 라스트오더 ~ 20:30 / 토 라스트오더 ~ 16:30	http://www.banapresso.com
래쉬카페	//t1.kakaocdn.net/thumb/T800x0.q50/?fname=http%3A%2F%2Ft1.daumcdn.net%2Fplace%2FAED4BDFFD02B49F7A7966947A63FAC29	4.5	37.4959912918073	127.041035767248	서울 강남구 논현로72길 19	02-556-1873	월~금 10:00 ~ 21:00 / 토 10:00 ~ 18:00	https://lashcafe.modoo.at
바나프레소 강남역사거리점	//t1.kakaocdn.net/thumb/T800x0.q50/?fname=http%3A%2F%2Ft1.daumcdn.net%2Fplace%2F6DA2692436004CE6B2F298F04B763499	4.7	37.4989324721728	127.027616092118	서울 강남구 강남대로 406	070-8998-8983	매일 07:00 ~ 22:00 / 매일 라스트오더 ~ 21:30	https://www.banapresso.com
더벤티 강남점	//t1.kakaocdn.net/thumb/T800x0.q50/?fname=http%3A%2F%2Ft1.daumcdn.net%2Fplace%2F863A5C1B9D1B4E4CAE61B5354BABEB71	4.3	37.4961674255074	127.030690954302	서울 강남구 테헤란로4길 35	02-558-0780	월~금 07:00 ~ 20:00	http://theventi.co.kr
와플앨리	//t1.kakaocdn.net/thumb/T800x0.q50/?fname=http%3A%2F%2Ft1.daumcdn.net%2Fplace%2F4E3867EC74BA4E76B98423860E0AAAB7	4.3	37.4954034455634	127.030405673295	서울 강남구 테헤란로4길 46	070-4189-2839	월~금 09:30 ~ 21:00 / 토 12:00 ~ 21:00	NULL
셀렉토커피 역삼점	//t1.kakaocdn.net/thumb/T800x0.q50/?fname=http%3A%2F%2Ft1.kakaocdn.net%2Ffiy_reboot%2Fplace%2F7480C9B6FC2B4393BDBBBC374BD6E7FA	4.0	37.49418507949479	127.03119109126168	서울 강남구 역삼로3길 11	02-538-9792	월~금 07:00 ~ 23:00 / 토 12:00 ~ 21:00	http://www.selecto.co.kr/
노보텔앰배서더 로비라운지	//t1.kakaocdn.net/thumb/T800x0.q50/?fname=http%3A%2F%2Ft1.daumcdn.net%2Fplace%2F9F6FE5AA169F4B1F837D6052FB45CD38	3.0	37.5053040859372	127.02886703666	서울 강남구 봉은사로 130	02-531-6612	매일 10:00 ~ 22:00	https://app.catchtable.co.kr/ct/shop/LobbyLounge
이에스씨	//t1.kakaocdn.net/thumb/T800x0.q50/?fname=http%3A%2F%2Ft1.daumcdn.net%2Fplace%2F3D1058D04BDA40AF9D2267AA6FF179AB	4.2	37.5034493321614	127.039829734251	서울 강남구 언주로93길 28-2	NULL	월~토 11:00 ~ 20:00	https://www.instagram.com/esc.by.smon/
카페안젤로 보노점	NULL	3.4	37.50180080342271	127.0047611874025	서울 서초구 반포대로 222	NULL	NULL	https://www.instagram.com/bono_cxw/
컴포즈커피 역삼2동점	NULL	5.0	37.4937185785681	127.042098607902	서울 강남구 논현로64길 19	NULL	NULL	https://composecoffee.com/
초이스커피	//t1.kakaocdn.net/thumb/T800x0.q50/?fname=http%3A%2F%2Ft1.kakaocdn.net%2Ffiy_reboot%2Fplace%2F00F325D5DACC4EE48FE70ACD85344859	0.0	37.4984080255655	127.042912075667	서울 강남구 역삼로37길 9	02-6409-1887	월~금 07:00 ~ 19:00 / 토,일 09:00 ~ 16:00	https://www.instagram.com/choice.coffee.cafe/
팡뮤제	//t1.kakaocdn.net/thumb/T800x0.q50/?fname=http%3A%2F%2Ft1.daumcdn.net%2Flocal%2FkakaomapPhoto%2Freview%2Ff7be9cf06a2723c8784fc24f6087091e6a225303%3Foriginal	5.0	37.4969593214848	127.040019662527	서울 강남구 논현로76길 12	NULL	월~금 10:00 ~ 20:30 / 토 10:00 ~ 19:30	NULL
로스터리 락온 역삼점	//t1.kakaocdn.net/thumb/T800x0.q50/?fname=http%3A%2F%2Ft1.daumcdn.net%2Fplace%2F73D33C34DC77457CAA4B3AEBA84D37F1	4.5	37.5009582950336	127.033212583975	서울 강남구 강남대로94길 71-4	NULL	월~금 07:30 ~ 17:30	https://www.instagram.com/roastery_lahgon_yeoksam
해머스미스커피 본점	//t1.kakaocdn.net/thumb/T800x0.q50/?fname=http%3A%2F%2Ft1.daumcdn.net%2Fplace%2F7265502D5937406DB60F0A25C4167ABE	3.8	37.5024726826252	127.036931763963	서울 강남구 논현로94길 7	0507-1423-1984	월~금 08:00 ~ 22:00 / 토 12:00 ~ 20:00	http://www.hammersmith.co.kr
매머드커피 역삼점	//t1.kakaocdn.net/thumb/T800x0.q50/?fname=http%3A%2F%2Ft1.daumcdn.net%2Fplace%2F2BBD9FEA4E624EB6AF272E9D2E2BAC88	4.4	37.5040956657343	127.044025931452	서울 강남구 테헤란로43길 12	070-7719-1645	월~금 07:00 ~ 20:00 / 토,일 09:00 ~ 17:00	http://www.mmthcoffee.com
카페정오	NULL	5.0	37.50776329258673	127.03722843369034	서울 강남구 봉은사로38길 6	02-554-0408	월~금 08:00 ~ 19:00	http://www.cafenoon.co.kr
바나프레소 한티역점	//t1.kakaocdn.net/thumb/T800x0.q50/?fname=http%3A%2F%2Ft1.kakaocdn.net%2Ffiy_reboot%2Fplace%2FA988CA222DE34A0D8F3E8F585D03EF12	4.7	37.49727982158199	127.05222062919142	서울 강남구 선릉로 311	070-8998-8937	매일 07:00 ~ 23:00 / 매일 라스트오더 ~ 22:30	https://www.banapresso.com
이디야커피 역삼중앙점	//t1.kakaocdn.net/thumb/T800x0.q50/?fname=http%3A%2F%2Ft1.daumcdn.net%2Fplace%2F51AB130E88564557941A492ADD781832	4.9	37.50029746217782	127.0428385174779	서울 강남구 언주로81길 8	02-538-9734	월~금 08:00 ~ 21:00 / 토 09:00 ~ 21:00 / 일 09:00 ~ 20:00	http://www.ediya.com
탐앤탐스 역삼GS타워점	//t1.kakaocdn.net/thumb/T800x0.q50/?fname=http%3A%2F%2Ft1.daumcdn.net%2Fplace%2FC7EA251F34774717ADDCFA5FDA8A74F3	3.5	37.50183018971556	127.03717346518545	서울 강남구 논현로 508	02-555-4565	월~금 07:00 ~ 21:00 / 토,일 11:00 ~ 21:00	https://www.tomntoms.com
바른커피 역삼점	//t1.kakaocdn.net/thumb/T800x0.q50/?fname=http%3A%2F%2Ft1.daumcdn.net%2Flocalfiy%2F93F04CA970184913966193390518A761	4.0	37.502316949317965	127.03928854765375	서울 강남구 테헤란로33길 7	02-555-2932	월~금 05:00 ~ 23:00 / 토 06:00 ~ 11:00 / 일 06:00 ~ 10:00	NULL
키이스케이프 로그인2	//t1.kakaocdn.net/thumb/T800x0.q50/?fname=http%3A%2F%2Ft1.daumcdn.net%2Fplace%2F9245CF1E89184AD4B94B7688CD2609F9	4.0	37.5007434070249	127.02798769668271	서울 강남구 강남대로98길 16	010-9444-6082	NULL	https://keyescape.co.kr/
황금열쇠 강남타임스퀘어점	NULL	5.0	37.5010766186845	127.028657321204	서울 강남구 강남대로98길 25	02-6081-2666	매일 10:00 ~ 23:30	https://www.instagram.com/stbt_goldenkey_official
106길15	//t1.kakaocdn.net/thumb/T800x0.q50/?fname=http%3A%2F%2Ft1.kakaocdn.net%2Ffiy_reboot%2Fplace%2FF8E8899DC9E54CD4973389C235562B8F	4.2	37.50310701477586	127.02682596950105	서울 강남구 강남대로106길 15	0507-1436-8521	매일 11:00 ~ 22:00	https://www.instagram.com/cafe.106gil_15/
공차 역삼GFC점	//t1.kakaocdn.net/thumb/T800x0.q50/?fname=http%3A%2F%2Ft1.daumcdn.net%2Flocalfiy%2Fsearchregister_1121594883	3.6	37.4990941195862	127.036256093994	서울 강남구 논현로85길 13	0507-1467-3405	월~금 07:30 ~ 21:30 / 토 09:00 ~ 21:30 / 일 09:00 ~ 20:30	https://www.gong-cha.co.kr
베통 역삼	//t1.kakaocdn.net/thumb/T800x0.q50/?fname=http%3A%2F%2Ft1.daumcdn.net%2Fplace%2F0855DEDD1F624777AB1B81AD334AB604	4.0	37.5023268350838	127.044444468307	서울 강남구 테헤란로44길 8	02-556-2111	NULL	https://www.instagram.com/beton.kr
빽다방 선정릉역점	//t1.kakaocdn.net/thumb/T800x0.q50/?fname=http%3A%2F%2Ft1.kakaocdn.net%2Ffiy_reboot%2Fplace%2F40840C4ED6E04F66BC09A04F16964E0D	2.8	37.5090782035833	127.044079754092	서울 강남구 선릉로 567	02-568-9365	월~금 07:40 ~ 19:00(아이스크림 마감 18:00) / 토 09:00 ~ 14:00	http://paikdabang.com
성수미술관 강남점	NULL	4.8	37.5034738329551	127.026342054754	서울 강남구 봉은사로4길 20	NULL	매일 12:00 ~ 22:00	http://seongsumuseum.com/
서브28에이치	//t1.kakaocdn.net/thumb/T800x0.q50/?fname=http%3A%2F%2Ft1.daumcdn.net%2Fplace%2FE9798FE02D23456EAC5864D1549CC6D6	4.4	37.4940732608535	127.045381539	서울 강남구 도곡로 247	NULL	NULL	NULL
호두	//t1.kakaocdn.net/thumb/T800x0.q50/?fname=http%3A%2F%2Ft1.kakaocdn.net%2Fmystore%2F0954D11F589745C28C0A531E94D52175	5.0	37.5042544758728	127.028615559332	서울 강남구 봉은사로16길 36	0507-1383-3563	매일 10:30 ~ 21:30	https://www.instagram.com/cafe.hodoo/
다노이 선릉점	NULL	3.3	37.5057738114012	127.047456058006	서울 강남구 테헤란로57길 17	02-508-2727	NULL	NULL
시베리안빙수킹	//t1.kakaocdn.net/thumb/T800x0.q50/?fname=http%3A%2F%2Ft1.daumcdn.net%2Fplace%2F2A6DE01B9D714303BC61E769A3BB6106	5.0	37.5051804624406	127.044062759647	서울 강남구 테헤란로43길 29	NULL	월~금 11:50 ~ 02:40 / 토,일 12:00 ~ 02:40	NULL
커피랑도서관 선릉역점	//t1.kakaocdn.net/thumb/T800x0.q50/?fname=http%3A%2F%2Ft1.kakaocdn.net%2Ffiy_reboot%2Fplace%2F9111E6366F1E4135BE1565249596D9D1	2.8	37.503080821953375	127.04937243207074	서울 강남구 선릉로 427	070-4150-1140	매일 00:00 ~ 24:00 / 기타 (무인운영 : 월~토 23:00 ~ 09:00)	http://cll.co.kr/
카미더가든	//t1.kakaocdn.net/thumb/T800x0.q50/?fname=http%3A%2F%2Ft1.kakaocdn.net%2Fmystore%2F487A5958673B49D291D740AD9B8897A3	5.0	37.5042572728952	127.034962510057	서울 강남구 논현로 537	0507-1384-0539	월~금 08:00 ~ 19:00 / 토 10:00 ~ 08:00	http://www.instagram.com/kamee.garden
불도저	//t1.kakaocdn.net/thumb/T800x0.q50/?fname=http%3A%2F%2Ft1.daumcdn.net%2Flocalfiy%2F17F6B51EEF61402F9BD720A42F2F04E4	1.0	37.50480877698658	127.03144093072078	서울 강남구 테헤란로19길 78	NULL	매일 12:00 ~ 23:00	NULL
티하우스 절기	//t1.kakaocdn.net/thumb/T800x0.q50/?fname=http%3A%2F%2Ft1.kakaocdn.net%2Fmystore%2F9BFA6B5A94AB434C9F2D31C87B474554	4.7	37.5090974528202	127.04065273431	서울 강남구 봉은사로 306	0507-1327-6475	화~일 14:00 ~ 22:00	https://instagram.com/jeolgi_/
아야커피	//t1.kakaocdn.net/thumb/T800x0.q50/?fname=http%3A%2F%2Ft1.daumcdn.net%2Fplace%2FE459AD7BEF9840B48EC8458C341F8235	4.1	37.5044519064377	127.043094226901	서울 강남구 언주로94길 11	02-556-2369	월~금 08:00 ~ 19:00 / 토,일 11:00 ~ 19:00	https://instagram.com/aya__coffee
에나타 강남1호점	//t1.kakaocdn.net/thumb/T800x0.q50/?fname=http%3A%2F%2Ft1.kakaocdn.net%2Ffiy_reboot%2Fplace%2FA86AEB0E8F8344C1B10DF8828E767137	2.5	37.50423712852726	127.02568862799964	서울 강남구 봉은사로2길 7	02-501-8151	매일 12:00 ~ 23:00	NULL
커피빈 국기원사거리점	//t1.kakaocdn.net/thumb/T800x0.q50/?fname=http%3A%2F%2Ft1.daumcdn.net%2Fplace%2F2A3F5578CE9040C3BEF2FD7AEA5C84B3	3.8	37.49620126037077	127.03220629225326	서울 강남구 테헤란로8길 42	02-552-7106	월~토 08:00 ~ 21:00 / 일 10:00 ~ 18:00	http://www.coffeebeankorea.com
쥬씨 역삼상록회관점	//t1.kakaocdn.net/thumb/T800x0.q50/?fname=http%3A%2F%2Ft1.daumcdn.net%2Fplace%2F16642C5E71C84CD98CD545C7DA5B2B72	2.6	37.5049789183493	127.043302628532	서울 강남구 언주로98길 17	NULL	월~금 08:40 ~ 21:25 / 토,일 09:30 ~ 19:25	http://www.no1juicy.com
레이지 요거트	//t1.kakaocdn.net/thumb/T800x0.q50/?fname=http%3A%2F%2Ft1.daumcdn.net%2Fplace%2FFEFB66544D8A49C5BDD1401839FA8E00	4.1	37.493685971962	127.030999778338	서울 강남구 역삼로 109	070-4123-5560	매일 10:00 ~ 20:00	https://www.instagram.com/lazyyogurt_
프리존사주카페 강남점	NULL	2.3	37.50127521344458	127.02707411552817	서울 강남구 테헤란로1길 44	02-538-5314	매일 11:00 ~ 21:30	NULL
커피빈 테헤란로비젼타워점	//t1.kakaocdn.net/thumb/T800x0.q50/?fname=http%3A%2F%2Ft1.daumcdn.net%2Fplace%2F118EDF1EAAE9405889DF6258DA5029F8	2.2	37.50302487475516	127.0450770785153	서울 강남구 테헤란로 312	02-558-7101	월~금 07:00 ~ 21:00 / 토,일 09:00 ~ 21:00	http://www.coffeebeankorea.com
카페데베르 선릉점	//t1.kakaocdn.net/thumb/T800x0.q50/?fname=http%3A%2F%2Ft1.daumcdn.net%2Flocalfiy%2F44BA5C94EE2F422CA5089D6FF358F099	3.3	37.5039832703668	127.045790157128	서울 강남구 테헤란로 317	02-563-5760	월~금 07:00 ~ 21:00 / 토,일 09:00 ~ 21:00	http://www.cafedesverts.co.kr
이디야커피 역삼충현점	NULL	3.7	37.50372436753021	127.036325059111	서울 강남구 논현로98길 7	02-569-0303	월~금 08:00 ~ 22:00 / 토 09:00 ~ 20:00 / 일 10:00 ~ 20:00	http://www.ediya.com
럭셔리 룸카페 강남역카페거리점	//t1.kakaocdn.net/thumb/T800x0.q50/?fname=http%3A%2F%2Ft1.daumcdn.net%2Fplace%2F19514DD2B57C46DE9DC553F01A5508F3	3.7	37.5024375030697	127.027108463199	서울 강남구 봉은사로4길 37	NULL	매일 10:30 ~ 23:30	NULL
쥬씨 강남역세무서점	//t1.kakaocdn.net/thumb/T800x0.q50/?fname=http%3A%2F%2Ft1.daumcdn.net%2Fplace%2F0177D1FB1B364C92A6DAF64F58F5B4CE	2.1	37.4968522699803	127.03038364372	서울 강남구 테헤란로4길 25	NULL	매일 09:00 ~ 22:10	http://www.no1juicy.com
커피빈 차병원점	//t1.kakaocdn.net/thumb/T800x0.q50/?fname=http%3A%2F%2Ft1.daumcdn.net%2Fplace%2F92A74A3E63B8478788D1AB93C900CAA5	3.3	37.5065008713114	127.03463896102151	서울 강남구 논현로 566	02-538-7615	월~금 07:00 ~ 18:00 / 토 07:00 ~ 15:00	http://www.coffeebeankorea.com
매머드커피 역삼역점	//t1.kakaocdn.net/thumb/T800x0.q50/?fname=http%3A%2F%2Ft1.daumcdn.net%2Flocalfiy%2F1E3AEEBB64814FB2B3A48DE418E10E9F	4.0	37.5019604940259	127.038243385516	서울 강남구 테헤란로27길 8	NULL	월~금 07:00 ~ 24:00 / 토 10:00 ~ 19:00	http://www.mmthcoffee.com
스몰톡커피	//t1.kakaocdn.net/thumb/T800x0.q50/?fname=http%3A%2F%2Ft1.kakaocdn.net%2Fmystore%2F0B47977B673A4B8094EF1376565E4F41	4.0	37.5046055928914	127.044138196483	서울 강남구 언주로98길 30	02-563-0701	월~금 08:00 ~ 18:00 / 토,일 12:00 ~ 18:00	https://instagram.com/smalltalkcoffee_official
리브릭커피	//t1.kakaocdn.net/thumb/T800x0.q50/?fname=http%3A%2F%2Ft1.kakaocdn.net%2Ffiy_reboot%2Fplace%2F4DE17F5891B54D0A9FE395FBBA945EAB	4.9	37.496823686148	127.029402055837	서울 강남구 테헤란로2길 21	NULL	월~금 07:00 ~ 22:00 / 토,일 09:00 ~ 21:00	NULL
해머스미스커피 역삼초교사거리점	//t1.kakaocdn.net/thumb/T800x0.q50/?fname=http%3A%2F%2Ft1.kakaocdn.net%2Ffiy_reboot%2Fplace%2FA5C147CF9AAE427D96149C7978013EB1	5.0	37.493975354175	127.033709307491	서울 강남구 역삼로 128	070-8691-1759	월~금 07:30 ~ 20:00 / 토,일 10:00 ~ 17:00	NULL
커피기업 강남GFC직영점	//t1.kakaocdn.net/thumb/T800x0.q50/?fname=http%3A%2F%2Ft1.daumcdn.net%2Fplace%2FBEF2DBD24B244CB8B26001673CA0363F	4.7	37.50007429548777	127.03664107298296	서울 강남구 테헤란로 152	02-563-5671	토요일	http://www.tjcoffeecompany.co.kr/
오로스트커피	//t1.kakaocdn.net/thumb/T800x0.q50/?fname=http%3A%2F%2Ft1.kakaocdn.net%2Ffiy_reboot%2Fplace%2F63F92987E665462D874EEF6F5367EA3C	4.9	37.4907462683194	127.033271384256	서울 강남구 강남대로62길 21	NULL	월~금 08:00 ~ 21:00 / 토 11:00 ~ 17:00	NULL
크노커피	//t1.kakaocdn.net/thumb/T800x0.q50/?fname=http%3A%2F%2Ft1.kakaocdn.net%2Ffiy_reboot%2Fplace%2FAAFB6975576E47FE89CCC5FE6B19B2E5	5.0	37.4985435120446	127.033519112236	서울 강남구 테헤란로14길 13	NULL	월~금 00:00 ~ 24:00	NULL
마스터키 강남프라임점	NULL	2.7	37.5008786768572	127.027481099747	서울 강남구 강남대로98길 11	070-4193-0021	NULL	http://www.master-key.co.kr/booking/bk_detail?bid=29
미니말레커피 뢰스터 역삼점	//t1.kakaocdn.net/thumb/T800x0.q50/?fname=http%3A%2F%2Ft1.kakaocdn.net%2Fmystore%2F52309E436B6E4B7AAB1A1750DD5E8E09	3.6	37.5022685946598	127.035495381867	서울 강남구 테헤란로25길 26	070-4070-6648	월~금 08:00 ~ 23:00 / 토,일 09:00 ~ 23:00	http://www.instagram.com/minimale_kaffeeroster
바나프레소 국기원사거리점	//t1.kakaocdn.net/thumb/T800x0.q50/?fname=http%3A%2F%2Ft1.daumcdn.net%2Fplace%2FC9AFE596EB0B46F69EA46B0E61EE98C3	3.5	37.4971906976697	127.031718188323	서울 강남구 테헤란로8길 26	070-8998-8929	매일 07:00 ~ 22:00	https://www.banapresso.com
매머드익스프레스 뱅뱅사거리점	NULL	3.7	37.49050680629495	127.0325317655621	서울 강남구 강남대로62길 11	NULL	월~금 07:00 ~ 19:00	http://www.mmthcoffee.com
카페 달토끼	NULL	3.7	37.5057677957979	127.03344995901	서울 강남구 봉은사로26길 20	NULL	월~금 08:00 ~ 18:00 / 토 12:00 ~ 18:00	NULL
바나프레소 역삼GS점	NULL	4.2	37.5026130971957	127.037384207351	서울 강남구 논현로94길 13	070-8998-8913	월~금 07:00 ~ 21:00 / 월~금 라스트오더 ~ 20:30	http://www.banapresso.com
사우	//t1.kakaocdn.net/thumb/T800x0.q50/?fname=http%3A%2F%2Ft1.kakaocdn.net%2Ffiy_reboot%2Fplace%2FCE70E1C80C61479B9684C45F7CDED019	5.0	37.4937406063804	127.035371480594	서울 강남구 역삼로14길 12	070-4151-0226	월~토 10:00 ~ 22:00	https://www.instagram.com/saucoffeebar/
카페아에 강남점	//t1.kakaocdn.net/thumb/T800x0.q50/?fname=http%3A%2F%2Ft1.daumcdn.net%2Fplace%2FE3A0162ED8244D429A5B28DF242E763C	4.8	37.5044265184128	127.03832946559	서울 강남구 논현로98길 34	010-5818-8332	월~금 06:00 ~ 24:00 / 토,일 07:00 ~ 24:00	https://www.instagram.com/cafea.e_gangnam/
카페테미	//t1.kakaocdn.net/thumb/T800x0.q50/?fname=http%3A%2F%2Ft1.kakaocdn.net%2Fmystore%2FAABBA39485A34091AE25B68BCAE5BD67	4.5	37.5060356720316	127.035583120391	서울 강남구 봉은사로30길 23	070-7714-5197	월~금 08:00 ~ 20:00 / 토,일 10:00 ~ 20:00	https://www.instagram.com/cafe_temi
삼삼공데이	//t1.kakaocdn.net/thumb/T800x0.q50/?fname=http%3A%2F%2Ft1.kakaocdn.net%2Ffiy_reboot%2Fplace%2FB57CC9905D1E48328718953FC33D0486	4.9	37.5015791250362	127.036155512743	서울 강남구 논현로 507	NULL	월~금 08:00 ~ 22:00 / 토 10:00 ~ 18:00	https://instagram.com/330day.cafe
오페라빈에스프레소바 역삼점	//t1.kakaocdn.net/thumb/T800x0.q50/?fname=http%3A%2F%2Ft1.daumcdn.net%2Fplace%2F4F33E6FC316143ADAAD4A90091883489	5.0	37.4949996251754	127.037286553898	서울 강남구 역삼로 166	070-8831-3222	월~금 08:00 ~ 19:00	https://www.instagram.com/operabean_yeoksam/
아리스타커피 선릉2호점	//t1.kakaocdn.net/thumb/T800x0.q50/?fname=http%3A%2F%2Ft1.daumcdn.net%2Flocalfiy%2F4068CB732DDD4FCC93220564D3F46B7E	4.2	37.503886588622	127.044143427974	서울 강남구 테헤란로43길 10	02-539-1666	월~금 07:00 ~ 21:00 / 토 09:00 ~ 17:00	http://www.aristacoffee.co.kr
해머스미스커피 역삼테헤란로점	//t1.kakaocdn.net/thumb/T800x0.q50/?fname=http%3A%2F%2Ft1.daumcdn.net%2Fplace%2F48574D729BBC40BD912F38E0406D8492	4.5	37.4990896073791	127.033216279841	서울 강남구 테헤란로14길 5	NULL	월~금 08:00 ~ 17:30 / 토 10:00 ~ 17:30	http://www.hammersmith.co.kr
올리앤아보	//t1.kakaocdn.net/thumb/T800x0.q50/?fname=http%3A%2F%2Ft1.daumcdn.net%2Flocalfiy%2F71C2DB1D8EBD45F7A89877F53A3C1227	3.9	37.4976670573776	127.029284776949	서울 강남구 테헤란로4길 6	02-554-5245	월~금 11:00 ~ 20:00 / 토,일 10:00 ~ 14:00	https://www.instagram.com/oli_and_avo/
카페클라우드나인	NULL	3.3	37.49854273502962	127.03615404873352	서울 강남구 역삼로17길 57	NULL	NULL	NULL
로티바	//t1.kakaocdn.net/thumb/T800x0.q50/?fname=http%3A%2F%2Ft1.kakaocdn.net%2Fmystore%2FEAAA580E69DE476AA934F1A63C5DC2C3	5.0	37.494429829258	127.032395508012	서울 강남구 역삼로5길 8	02-556-1477	월~금 10:30 ~ 22:00	https://instagram.com/raw_tea_bar?utm_medium=copy_link
오디너리핏 역삼	//t1.kakaocdn.net/thumb/T800x0.q50/?fname=http%3A%2F%2Ft1.daumcdn.net%2Flocal%2FkakaomapPhoto%2Freview%2F21dfd2d22bc128abc34c50440227144584f118de%3Foriginal	4.8	37.4954514250707	127.038855236338	서울 강남구 역삼로 180	NULL	월~금 09:00 ~ 19:00 / 토,일 11:00 ~ 18:00	https://instagram.com/ordinary.pit
데이롱카페 강남역삼점	NULL	5.0	37.4932079454536	127.035920795152	서울 강남구 논현로67길 50	0507-1369-5856	매일 00:00 ~ 24:00	https://www.daylong24.com/
포코너스	//t1.kakaocdn.net/thumb/T800x0.q50/?fname=http%3A%2F%2Ft1.daumcdn.net%2Fplace%2FE3799C6A91DC40B1AB585FC72A3221E4	4.8	37.49277287210009	127.041101853609	서울 강남구 도곡로 203	NULL	월~금 08:00 ~ 21:00 / 토,일 10:00 ~ 20:00	https://www.instagram.com/four_corners_coffee
할리스 강남우리라운지점	//t1.kakaocdn.net/thumb/T800x0.q50/?fname=http%3A%2F%2Ft1.daumcdn.net%2Fplace%2FF2CB83B110BB4DD4BBCC48A20BF52422	0.0	37.503108519506725	127.04306065741449	서울 강남구 테헤란로 301	02-566-1002	월~토 08:00 ~ 19:00	https://www.hollys.co.kr/
메가MGC커피 언주역점	NULL	5.0	37.50615503419208	127.03412759420095	서울 강남구 논현로 561	02-508-0656	매일 10:00 ~ 21:00	https://www.mega-mgccoffee.com/
카페포레	//t1.kakaocdn.net/thumb/T800x0.q50/?fname=http%3A%2F%2Ft1.daumcdn.net%2Fplace%2F738AAC1CCD58411696EA0C16FCF2A4C9	2.7	37.50275491712764	127.03905014929268	서울 강남구 테헤란로33길 15	NULL	월~금 07:30 ~ 23:00 / 토,일 09:00 ~ 22:00	https://www.instagram.com/cafe_foret33
플레이포인트랩 강남점	NULL	5.0	37.5008786768572	127.027481099747	서울 강남구 강남대로98길 11	070-8872-0142	NULL	http://www.master-key.co.kr/
요거트아이스크림의정석 역삼점	NULL	5.0	37.499451640103366	127.04467007260564	서울 강남구 언주로 408	070-4121-7731	매일 14:00 ~ 22:00	https://yoajung.co.kr/
디어마이플라워	//t1.kakaocdn.net/thumb/T800x0.q50/?fname=http%3A%2F%2Ft1.daumcdn.net%2Fplace%2FB868A67C5AB244A580B906BEC116DDC7	5.0	37.5061272992695	127.046718877239	서울 강남구 테헤란로55길 28	NULL	월~금 09:00 ~ 19:00	https://linkbio.co/cafeDMF
룸즈에이 강남점	//t1.kakaocdn.net/thumb/T800x0.q50/?fname=http%3A%2F%2Ft1.daumcdn.net%2Fplace%2F641B3AA14C1F4CEA8F2D0B07D15C2696	3.3	37.4961385962339	127.030679634125	서울 강남구 테헤란로4길 35	02-558-7546	매일 10:00 ~ 22:30	http://roomsa.co.kr
카페2.15	NULL	0.0	37.49905376339832	127.0436859683783	서울 강남구 언주로75길 6	NULL	NULL	NULL
카페플랫	//t1.kakaocdn.net/thumb/T800x0.q50/?fname=http%3A%2F%2Ft1.daumcdn.net%2Fplace%2F22BDEE5A557A4A65AAB3A0908C6B991A	5.0	37.5010147861906	127.034167098275	서울 강남구 논현로95길 29-13	NULL	월~금 07:30 ~ 19:30	NULL
인사이드	//t1.kakaocdn.net/thumb/T800x0.q50/?fname=http%3A%2F%2Ft1.daumcdn.net%2Fcfile%2F166CAE434F67DEE123	4.4	37.49196108117316	127.03235373384436	서울 강남구 도곡로3길 27	070-4109-5250	월~금 08:00 ~ 24:00 / 토,일 11:00 ~ 24:00	NULL
보헤미안	//t1.kakaocdn.net/thumb/T800x0.q50/?fname=http%3A%2F%2Ft1.kakaocdn.net%2Ffiy_reboot%2Fplace%2F81892A8A4BF94A9E8209085EB08818C4	5.0	37.5067427765996	127.033119011657	서울 강남구 봉은사로 174	02-6359-8832	월~토 09:00 ~ 22:30 / 일 10:00 ~ 20:00	https://www.bohemiankorea.kr/
이태리다방	//t1.kakaocdn.net/thumb/T800x0.q50/?fname=http%3A%2F%2Ft1.kakaocdn.net%2Fmystore%2F4DA342DBA94A43399657D4B430FD4AAA	5.0	37.4946407303935	127.038206859155	서울 강남구 논현로71길 17	02-365-5752	월~금 08:30 ~ 20:00	https://www.instagram.com/cafe_italydabang/
한씨커피	//t1.kakaocdn.net/thumb/T800x0.q50/?fname=http%3A%2F%2Ft1.daumcdn.net%2Flocal%2FkakaomapPhoto%2Freview%2Fca36aa7764984f3586f4366122cd1bb2b99a166a4e4c2ff5571b00dcce2b7271	5.0	37.49361623453366	127.03548110953008	서울 강남구 역삼로14길 14	02-6494-0411	NULL	https://www.instagram.com/hanccoffee
커피스미스 본사점2	//t1.kakaocdn.net/thumb/T800x0.q50/?fname=http%3A%2F%2Ft1.daumcdn.net%2Fplace%2F14270FF0C15640AAA2B896A214D0B426	0.0	37.4969415362795	127.041939836363	서울 강남구 역삼로 230	02-567-6740	NULL	http://coffeesmith.co.kr/
커피코트 선릉한신인터밸리점	NULL	4.7	37.5030530285942	127.046821008262	서울 강남구 테헤란로 322	02-2183-0070	월~금 07:00 ~ 19:00 / 토 08:00 ~ 18:00	NULL
바나프레소 역삼대로점	//t1.kakaocdn.net/thumb/T800x0.q50/?fname=http%3A%2F%2Ft1.daumcdn.net%2Fplace%2FCD754218752D44E7A324116823E1ED28	4.9	37.4984323120778	127.037753049226	서울 강남구 논현로 427-1	070-8998-8933	월~금 07:00 ~ 21:00 / 토 09:00 ~ 17:00 / 월~금 라스트오더 ~ 20:30 / 토 라스트오더 ~ 16:30	http://www.banapresso.com
샐러리아 강남점	//t1.kakaocdn.net/thumb/T800x0.q50/?fname=http%3A%2F%2Ft1.daumcdn.net%2Fplace%2F512D65A96D684AC5BC32C65776D46B98	3.8	37.5029063054747	127.03899141926	서울 강남구 논현로94길 32	02-2039-5595	매일 06:30 ~ 22:00	NULL
보스케	NULL	4.0	37.4924119793744	127.030879388931	서울 강남구 강남대로 328	02-6013-1147	NULL	NULL
코코버블티 강남역점	//t1.kakaocdn.net/thumb/T800x0.q50/?fname=http%3A%2F%2Ft1.daumcdn.net%2Fplace%2F3839F34498D641CCAC2F4790E3059DAF	3.1	37.49985867890389	127.0277340461996	서울 강남구 강남대로96길 9	NULL	매일 10:30 ~ 22:30	NULL
포트캔커피 역삼점	//t1.kakaocdn.net/thumb/T800x0.q50/?fname=http%3A%2F%2Ft1.daumcdn.net%2Fplace%2F06E68B2E5BA1460B9AAC7772F5F650C6	2.5	37.49210705980953	127.03229725795302	서울 강남구 역삼로4길 22	02-6958-6550	매일 00:00 ~ 24:00	https://portcancoffee.kr
아리스타커피 역삼점	//t1.kakaocdn.net/thumb/T800x0.q50/?fname=http%3A%2F%2Ft1.daumcdn.net%2Fplace%2F886739500D304A28922724BEA76102C9	0.0	37.5006606436837	127.034329787389	서울 강남구 테헤란로21길 5	02-564-1577	월~금 07:00 ~ 20:00 / 토,일 09:00 ~ 17:00	http://www.aristacoffee.co.kr
매머드익스프레스 역삼신일유토빌점	//t1.kakaocdn.net/thumb/T800x0.q50/?fname=http%3A%2F%2Ft1.daumcdn.net%2Fplace%2F22805124C1A84796B6E6815BEE9756D8	4.8	37.498947153816864	127.0335509573058	서울 강남구 논현로87길 41	NULL	월~금 07:30 ~ 19:20	http://www.mmthcoffee.com
스타벅스 역삼이마트점	//t1.kakaocdn.net/thumb/T800x0.q50/?fname=http%3A%2F%2Ft1.daumcdn.net%2Fplace%2F23B088196BBC477E85FC140BF9698193	4.5	37.4992357231722	127.048419957286	서울 강남구 역삼로 310	1522-3232	매일 10:00 ~ 21:30	https://www.starbucks.co.kr
가유카페 강남점	//t1.kakaocdn.net/thumb/T800x0.q50/?fname=http%3A%2F%2Ft1.kakaocdn.net%2Fmystore%2F2D9D406D1FD74BE99E011C02184B4175	NULL	37.50494620037834	127.0360983259716	서울 강남구 논현로102길 12	02-555-0966	월~금 09:00 ~ 00:30 / 토,일 10:00 ~ 23:00	http://instagram.com/gayou_gn
지지	//t1.kakaocdn.net/thumb/T800x0.q50/?fname=http%3A%2F%2Ft1.daumcdn.net%2Flocalfiy%2FF153C472352249CB9A866E646787EBF9	3.9	37.4936657244157	127.032580629283	서울 강남구 역삼로 120	02-558-3823	월~금 10:00 ~ 22:00 / 토 12:00 ~ 20:00	NULL
더메이즈	//t1.kakaocdn.net/thumb/T800x0.q50/?fname=http%3A%2F%2Ft1.daumcdn.net%2Fcfile%2F235AF63F56FBB0D249	1.9	37.5017941155837	127.027409056171	서울 강남구 봉은사로18길 76	02-562-8850	매일 10:00 ~ 24:00	NULL
로스팅팩토리	NULL	4.0	37.4974460943592	127.044420089287	서울 강남구 언주로71길 7	02-626-1003	NULL	NULL
빈더바닐라	//t1.kakaocdn.net/thumb/T800x0.q50/?fname=http%3A%2F%2Ft1.kakaocdn.net%2Fmystore%2FF89CAB16DADD4DA5B40956FE1A7EF821	5.0	37.50025345183333	127.03083512000325	NULL	02-552-7115	월~금 07:30 ~ 20:00 / 토 10:00 ~ 18:00	https://www.instagram.com/been_the_vanilla
에슬로우커피 상록점	//t1.kakaocdn.net/thumb/T800x0.q50/?fname=http%3A%2F%2Ft1.daumcdn.net%2Flocal%2FkakaomapPhoto%2Freview%2Fee6170dd060bf8d7a5f14a245645a89a44adc6c1%3Foriginal	4.0	37.5049283447194	127.04362153299236	서울 강남구 언주로98길 21	02-556-5278	월~금 07:30 ~ 22:30 / 토,일 09:00 ~ 22:00	http://www.eslow.co.kr/
슬로우다이브	//t1.kakaocdn.net/thumb/T800x0.q50/?fname=http%3A%2F%2Ft1.kakaocdn.net%2Ffiy_reboot%2Fplace%2F795E740F4A8C4D24B3DCBBDC86203CAB	5.0	37.5053689190704	127.035613340315	서울 강남구 봉은사로30길 34	070-7773-2572	월~금 08:00 ~ 20:00 / 토,일 10:00 ~ 20:00	https://instagram.com/cafe.slowdive
아하오호	//t1.kakaocdn.net/thumb/T800x0.q50/?fname=http%3A%2F%2Ft1.daumcdn.net%2Fplace%2FA120977F60DF4FBF9F96E538082A8B64	4.7	37.5030207152792	127.036217278742	서울 강남구 논현로 520	010-6497-0304	월~금 07:30 ~ 21:00 / 토 10:30 ~ 21:00	https://www.instagram.com/cafe_ahaoho
커피사피엔스 역삼푸르지오시티점	NULL	4.0	37.498116413249214	127.0335958203402	서울 강남구 논현로85길 52	NULL	매일 07:00 ~ 22:00	http://www.cff-sapiens.com
카페루스터	//t1.kakaocdn.net/thumb/T800x0.q50/?fname=http%3A%2F%2Ft1.daumcdn.net%2Flocalfiy%2Fsearchregister_946979244	4.2	37.5000175631104	127.039346149483	서울 강남구 논현로86길 22	02-508-5101	월~금 08:00 ~ 22:00 / 토 08:00 ~ 18:00	https://www.instagram.com/cafe_luster/
바나프레소 강남효성점	//t1.kakaocdn.net/thumb/T800x0.q50/?fname=http%3A%2F%2Ft1.daumcdn.net%2Flocalfiy%2Fsearchregister_1045762153	2.6	37.49700377971107	127.02983184982035	서울 강남구 강남대로84길 15	070-8998-8963	매일 07:00 ~ 23:00 / 매일 라스트오더 ~ 22:30	https://www.banapresso.com/
매머드익스프레스 역삼신한점	NULL	4.2	37.4991852121182	127.043950671775	서울 강남구 언주로 405	02-6012-2504	월~금 07:00 ~ 16:00 / 토 08:00 ~ 14:00	NULL
더빈마켓	//t1.kakaocdn.net/thumb/T800x0.q50/?fname=http%3A%2F%2Ft1.kakaocdn.net%2Fmystore%2F6A68231EBEEB40CDAC94F7B9E350805F	5.0	37.5012636569416	127.041956955622	서울 강남구 언주로85길 14	02-6401-0314	월~금 08:00 ~ 24:00 / 토 09:00 ~ 21:00 / 일 10:00 ~ 17:00	https://www.instagram.com/thebeanmarket09/
텐퍼센트커피 역삼센트럴점	NULL	4.0	37.50074251744772	127.04039940461738	서울 강남구 언주로85길 32	NULL	월~금 08:00 ~ 21:00	http://tenpercentcoffee.com
바나프레소 역삼역점	//t1.kakaocdn.net/thumb/T800x0.q50/?fname=http%3A%2F%2Ft1.daumcdn.net%2Fplace%2F657D637520164689A796DAF0BF9E20C1	5.0	37.501118172917	127.034949737198	서울 강남구 강남대로94길 95	070-8998-8915	월~금 07:00 ~ 17:00 / 월~금 라스트오더 ~ 16:30	http://www.banapresso.com
카페자이냅스	//t1.kakaocdn.net/thumb/T800x0.q50/?fname=http%3A%2F%2Ft1.daumcdn.net%2Fplace%2F498833E3BACC4EFD99A1B9C8EA4F5ADF	4.3	37.5057873897625	127.034246180106	서울 강남구 논현로 557	NULL	월~금 09:00 ~ 17:30	NULL
더리터 역삼점	//t1.kakaocdn.net/thumb/T800x0.q50/?fname=http%3A%2F%2Ft1.kakaocdn.net%2Ffiy_reboot%2Fplace%2F08525F12D5034CE4A6490740797EB0E8	4.0	37.4987676600153	127.037205873313	서울 강남구 논현로85길 5-7	NULL	NULL	https://theliter.net/
더벤티 뱅뱅사거리점	NULL	4.8	37.4905588319924	127.033366284438	서울 강남구 강남대로62길 22	02-567-0224	월~금 07:00 ~ 19:00 / 토,일 09:00 ~ 18:00 / 월~금 라스트오더 ~ 18:30 / 토,일 라스트오더 ~ 17:30	https://www.theventi.co.kr
메타빌토스	//t1.kakaocdn.net/thumb/T800x0.q50/?fname=http%3A%2F%2Ft1.kakaocdn.net%2Ffiy_reboot%2Fplace%2FB928D03CBDBE40E08A7F4149D4D2AD63	5.0	37.50292465874848	127.035053494807	서울 강남구 테헤란로25길 36	0507-1445-3319	월~금 07:30 ~ 20:00 / 토,일 10:30 ~ 20:00	https://www.instagram.com/metavlitos_cafe/
컴포즈커피 테헤란아이파크점	NULL	0.0	37.50280044433199	127.04757857922831	서울 강남구 테헤란로52길 16	070-8836-9051	월~금 08:00 ~ 22:00 / 토,일 09:00 ~ 20:00	https://composecoffee.com/
모카옌	NULL	3.0	37.5022192525922	127.040438651879	서울 강남구 테헤란로 221	NULL	NULL	NULL
매머드익스프레스 국기원점	//t1.kakaocdn.net/thumb/T800x0.q50/?fname=http%3A%2F%2Ft1.daumcdn.net%2Fplace%2F29ACEC6C6C144D1399989F10DF9783C7	4.5	37.49956817011981	127.02932736229212	서울 강남구 테헤란로5길 11	NULL	월~금 07:30 ~ 17:00	http://www.mmthcoffee.com/
이스케이프랩	//t1.kakaocdn.net/thumb/T800x0.q50/?fname=http%3A%2F%2Ft1.kakaocdn.net%2Fmystore%2FD7E27B5A30024C3AA84183BA98ACA679	3.8	37.4998603044187	127.028475913312	서울 강남구 강남대로96길 18	010-8418-8140	매일 10:00 ~ 22:00	https://escapelab.co.kr
에슬로우커피 GS타워점	//t1.kakaocdn.net/thumb/T800x0.q50/?fname=http%3A%2F%2Ft1.kakaocdn.net%2Ffiy_reboot%2Fplace%2F467213C966304D24B98A643EBD22DA07	4.5	37.5025696744367	127.037931558195	서울 강남구 테헤란로27길 18	070-7576-4479	매일 07:00 ~ 23:00	http://www.eslow.co.kr/
폴프랭크카페 선릉점	//t1.kakaocdn.net/thumb/T800x0.q50/?fname=http%3A%2F%2Ft1.daumcdn.net%2Fplace%2F0B15366300DB412A8B09941959F375E8	4.8	37.50459146060798	127.0480298400077	서울 강남구 테헤란로 333	NULL	월~금 08:00 ~ 22:00 / 토,일 09:00 ~ 20:00	NULL
갤러리지아르체	NULL	4.5	37.49604002394749	127.02853100453	NULL	02-3280-4488	NULL	NULL
밸런스포인트 선릉점	//t1.kakaocdn.net/thumb/T800x0.q50/?fname=http%3A%2F%2Ft1.kakaocdn.net%2Fmystore%2F189C12BEBA124130B524F82907089D27	4.5	37.5058424055437	127.047162045524	서울 강남구 테헤란로55길 20	010-6235-4046	월~금 09:00 ~ 24:00 / 토 10:30 ~ 18:00	https://instagram.com/balancepoint.coffee
하트카페	//t1.kakaocdn.net/thumb/T800x0.q50/?fname=http%3A%2F%2Ft1.kakaocdn.net%2Ffiy_reboot%2Fplace%2F12D3164A8E6141FF89200296F90DB894	4.9	37.49717922132452	127.0398591986624	서울 강남구 논현로76길 11	02-556-9970	월~금 08:00 ~ 19:00 / 토 11:00 ~ 18:30	NULL
데어무트	//t1.kakaocdn.net/thumb/T800x0.q50/?fname=http%3A%2F%2Ft1.daumcdn.net%2Fplace%2F5F7761F1CD0040EC9B83C706349BC72D	5.0	37.5020422478808	127.038970613242	서울 강남구 테헤란로33길 3-6	010-2136-2191	월~금 08:00 ~ 18:00	https://www.instagram.com/der_mut_/
터프커피(TUFF COFFEE)	//t1.kakaocdn.net/thumb/T800x0.q50/?fname=http%3A%2F%2Ft1.daumcdn.net%2Fplace%2F990B1704A29C4704B1014C0B3E8C7B82	4.5	37.5019460888758	127.035314281113	서울 강남구 테헤란로25길 19	02-566-8945	월~토 08:00 ~ 21:00	NULL
매머드커피 강남역점	NULL	4.0	37.4977283224454	127.029298371216	서울 강남구 테헤란로4길 6	02-501-6618	월~금 07:00 ~ 18:00 / 토 08:30 ~ 18:00	http://www.mmthcoffee.com
인사이드	//t1.kakaocdn.net/thumb/T800x0.q50/?fname=http%3A%2F%2Ft1.daumcdn.net%2Fcfile%2F166CAE434F67DEE123	5.0	37.49196108117316	127.03235373384436	서울 강남구 도곡로3길 27	070-4109-5250	월~금 08:00 ~ 24:00 / 토,일 11:00 ~ 24:00	NULL
투오프커피	//t1.kakaocdn.net/thumb/T800x0.q50/?fname=http%3A%2F%2Ft1.kakaocdn.net%2Fmystore%2FBDE01FE08A5F42A8BFC6EA2B4077AA17	3.2	37.49528627442306	127.03386595055488	서울 강남구 역삼로9길 20	070-7704-6600	월~금 08:00 ~ 21:00	NULL
커피인류 역삼점	//t1.kakaocdn.net/thumb/T800x0.q50/?fname=http%3A%2F%2Ft1.kakaocdn.net%2Ffiy_reboot%2Fplace%2FD5016D5B3F2A42D6A4A156F6652C842D	5.0	37.49845106987356	127.04811863849196	서울 강남구 역삼로52길 14	070-4233-5013	매일 08:00 ~ 19:00	NULL
더까페	//t1.kakaocdn.net/thumb/T800x0.q50/?fname=http%3A%2F%2Ft1.daumcdn.net%2Fcfile%2F126AD8374DCE04FA14	0.0	37.50301304610684	127.03154196243554	서울 강남구 강남대로110길 86	02-515-4933	월~금 09:00 ~ 21:00 / 토 10:00 ~ 21:00 / 일 10:00 ~ 19:00	NULL
바나프레소 역삼삼보점	//t1.kakaocdn.net/thumb/T800x0.q50/?fname=http%3A%2F%2Ft1.daumcdn.net%2Fplace%2FECD77C83A0184751BD66B1A36D80E2F9	4.0	37.5004086073979	127.033474709844	서울 강남구 테헤란로19길 5	070-8998-8970	월~금 07:00 ~ 21:00 / 월~금 라스트오더 ~ 20:30	https://banapresso.com
카페리	//t1.kakaocdn.net/thumb/T800x0.q50/?fname=http%3A%2F%2Ft1.daumcdn.net%2Fplace%2FC987052D09374A34B995D3D506503192	0.0	37.5005795750753	127.039988798356	서울 강남구 논현로86길 33	NULL	월~금 07:30 ~ 20:00 / 토 10:00 ~ 17:00	NULL
라이브러리	//t1.kakaocdn.net/thumb/T800x0.q50/?fname=http%3A%2F%2Ft1.daumcdn.net%2Flocal%2FkakaomapPhoto%2Freview%2F8c016a040a187d9f44c09b2c9b75d56524dad517%3Foriginal	5.0	37.5034035886013	127.039208819785	서울 강남구 언주로93길 32-3	NULL	월~금 10:00 ~ 22:00 / 토 10:00 ~ 17:00	NULL
올어바웃카페 강남상록회관점	//t1.kakaocdn.net/thumb/T800x0.q50/?fname=http%3A%2F%2Ft1.daumcdn.net%2Fplace%2FE19053FFBD894743A8D9EF2B6F8FD3DD	5.0	37.5039663321378	127.042908471025	서울 강남구 언주로 508	02-560-3459	NULL	https://www.facebook.com/allaboutcafe7
에슬로우커피 뱅뱅사거리점	NULL	4.3	37.4909084750881	127.033180995477	서울 강남구 도곡로3길 10	02-554-9556	매일 07:00 ~ 23:00	http://www.eslow.co.kr/
커피나인 언주역	//t1.kakaocdn.net/thumb/T800x0.q50/?fname=http%3A%2F%2Ft1.kakaocdn.net%2Fmystore%2F52A4A24ADC764A57BEB1CCA05110270E	5.0	37.5066744274477	127.032662058738	서울 강남구 봉은사로 170	0507-1325-1039	월~토 06:00 ~ 20:00 / 일 08:00 ~ 17:00	https://www.instagram.com/coffeenine_eonju
스타벅스 강남역신분당역사점	//t1.kakaocdn.net/thumb/T800x0.q50/?fname=http%3A%2F%2Ft1.daumcdn.net%2Fplace%2F49ECAC20F9624721826A415EACFF77F8	4.9	37.49701321401818	127.02810165133744	NULL	1522-3232	월~금 06:30 ~ 20:00 / 토 07:00 ~ 18:00 / 일 08:00 ~ 17:00	https://www.starbucks.co.kr/
매스커피 역삼점	//t1.kakaocdn.net/thumb/T800x0.q50/?fname=http%3A%2F%2Ft1.daumcdn.net%2Fcfile%2F23309B4555E7E10021	3.5	37.5027282920131	127.037804973462	서울 강남구 논현로94길 19	02-556-6007	매일 07:00 ~ 22:00	http://www.mass-coffee.com
퓨	//t1.kakaocdn.net/thumb/T800x0.q50/?fname=http%3A%2F%2Ft1.daumcdn.net%2Fplace%2F87F81C05C624478D89643069CAA8930F	0.0	37.5057750842007	127.033164954477	서울 강남구 논현로105길 13	02-555-8958	월~금 08:00 ~ 22:00 / 토,일 09:00 ~ 18:00	NULL
킴델숀	//t1.kakaocdn.net/thumb/T800x0.q50/?fname=http%3A%2F%2Ft1.daumcdn.net%2Fplace%2F723499DAAD6D47B6B495CEDD79B5E9AA	0.0	37.49919932404163	127.03972117366156	서울 강남구 언주로81길 47	02-6093-1234	월~금 10:00 ~ 22:00 / 토,일 12:00 ~ 22:00	https://smartstore.naver.com/kimdelssohn
멜로우미	//t1.kakaocdn.net/thumb/T800x0.q50/?fname=http%3A%2F%2Ft1.daumcdn.net%2Fplace%2FD9DAD7F9BB424FC28E625D1F7474C54C	0.0	37.492875840868	127.034692599538	서울 강남구 논현로67길 64	NULL	NULL	NULL
바나프레소 역삼초교사거리점	//t1.kakaocdn.net/thumb/T800x0.q50/?fname=http%3A%2F%2Ft1.daumcdn.net%2Fplace%2F3E3D9A6ADF0D43CDAC20D4B6DE670B5B	3.2	37.4942754030042	127.033661948333	서울 강남구 역삼로 127	070-8998-8954	월~금 07:00 ~ 20:30	https://www.banapresso.com
호야빙 역삼점	//t1.kakaocdn.net/thumb/T800x0.q50/?fname=http%3A%2F%2Ft1.daumcdn.net%2Fplace%2F82DDE6DB58FB41A0A6D5F023F18F5227	4.0	37.50136355589136	127.03388792076667	서울 강남구 논현로95길 29-8	02-558-5552	매일 00:00 ~ 24:00	NULL
트리플에이커피 역삼점	//t1.kakaocdn.net/thumb/T800x0.q50/?fname=http%3A%2F%2Ft1.daumcdn.net%2Fplace%2FBFFE03C32910427588DEC33DF08519D1	4.8	37.5019764772055	127.033050181632	서울 강남구 테헤란로19길 30	02-558-5296	월~금 07:00 ~ 22:00 / 토,일 10:00 ~ 22:00	http://tripleacoffee.co.kr/
레드애플 강남파이낸스센터점	//t1.kakaocdn.net/thumb/T800x0.q50/?fname=http%3A%2F%2Ft1.daumcdn.net%2Fplace%2FFD31ED1CFCA84CC4B302EF3F0D280AF3	3.7	37.4998094039469	127.036627372828	서울 강남구 테헤란로 152	02-565-3122	월~토 09:00 ~ 21:00	https://redapplecoffee.com
카페드빈티지 역삼3호점	NULL	4.5	37.5052767936724	127.036345037862	서울 강남구 논현로102길 15	NULL	월~금 12:00 ~ 24:00	NULL
W카페 역삼3점	NULL	0.0	37.5003737307208	127.041196491678	서울 강남구 테헤란로34길 21-7	NULL	매일 07:00 ~ 17:00	NULL
카페리빈 강남점	//t1.kakaocdn.net/thumb/T800x0.q50/?fname=http%3A%2F%2Ft1.daumcdn.net%2Fplace%2F23FF729EB16A4B4590044F1F494CBBC4	3.8	37.490577104158	127.032461689296	서울 강남구 도곡로1길 10	02-554-0608	월~토 09:00 ~ 21:20 / 일 09:00 ~ 19:40	NULL
에버그릭 역삼점	//t1.kakaocdn.net/thumb/T800x0.q50/?fname=http%3A%2F%2Ft1.daumcdn.net%2Fplace%2FC02A5CCA4D244CCB9F74B57559B1BA2A	1.0	37.49852505558782	127.0350231662965	서울 강남구 테헤란로20길 19	NULL	월~토 10:00 ~ 22:00	https://www.instagram.com/ever_greek_yeoksam/
카페쿰	//t1.kakaocdn.net/thumb/T800x0.q50/?fname=http%3A%2F%2Ft1.daumcdn.net%2Flocalfiy%2FE8C36CDD256E4A9395F895E8DDF11EA5	5.0	37.5005975982539	127.039979760727	서울 강남구 논현로86길 33	02-538-0087	월~금 08:30 ~ 21:00 / 토 11:00 ~ 17:00	https://www.instagram.com/cafekulm
매머드커피 강남1호점	NULL	4.7	37.4938029718628	127.031495118288	서울 강남구 역삼로 113	070-8881-1645	월~금 07:00 ~ 23:00	http://www.mmthcoffee.com
카페로코	NULL	4.3	37.506510536357	127.035467984355	서울 강남구 봉은사로30길 17	NULL	월~금 09:00 ~ 22:00 / 토 12:00 ~ 21:00	https://www.instagram.com/cafe.loco_
플레어비 역삼GFC몰점	//t1.kakaocdn.net/thumb/T800x0.q50/?fname=http%3A%2F%2Ft1.kakaocdn.net%2Ffiy_reboot%2Fplace%2FD8ACF138F7224BF9BC0512759734E612	4.9	37.5000256817836	127.03650986523	서울 강남구 테헤란로 152	070-4404-4989	월~금 07:00 ~ 22:00 / 토 09:00 ~ 19:00	NULL
코티커피 강남효성점	NULL	1.0	37.4970037788543	127.029835242373	서울 강남구 강남대로84길 15	070-4923-7948	월~금 07:30 ~ 22:00 / 토,일 08:00 ~ 21:00	NULL
이디야커피 역삼더블루점	//t1.kakaocdn.net/thumb/T800x0.q50/?fname=http%3A%2F%2Ft1.daumcdn.net%2Fplace%2FE57AFB6E27FE4C68A7881B3FAA8831FC	5.0	37.4929429115701	127.039188650567	서울 강남구 논현로63길 16	02-565-5510	월~토 08:30 ~ 20:00	http://www.ediya.com
메가MGC커피 강남역점	NULL	2.1	37.4980782094897	127.028077171342	서울 강남구 테헤란로 101	02-567-5424	매일 07:00 ~ 22:00	http://www.megacoffee.me
오디오시요거트 강남역점	//t1.kakaocdn.net/thumb/T800x0.q50/?fname=http%3A%2F%2Ft1.kakaocdn.net%2Fmystore%2F79AA085DD0E7454DA6DCCBB274B57B39	5.0	37.4944392440819	127.03415731766	서울 강남구 역삼로 133	02-563-2726	매일 10:00 ~ 21:30	https://blog.naver.com/comfycomfy
오히커피	//t1.kakaocdn.net/thumb/T800x0.q50/?fname=http%3A%2F%2Ft1.kakaocdn.net%2Fmystore%2F35BCE5468F514AC0B50B05EE20D7C18C	4.7	37.4947300232639	127.040627983145	서울 강남구 도곡로25길 31	02-558-8172	NULL	NULL
카페드리옹 역삼점	//t1.kakaocdn.net/thumb/T800x0.q50/?fname=http%3A%2F%2Ft1.daumcdn.net%2Fplace%2F27B0E01A1953463681D63CEC76829665	1.0	37.5045243064662	127.044659523201	서울 강남구 언주로98길 36	NULL	월~토 09:00 ~ 21:30	NULL
파란행복	NULL	0.0	37.49883665175	127.035532207201	서울 강남구 논현로85길 28	02-211-2029	월~금 07:30 ~ 18:30	NULL
투샷	NULL	5.0	37.4909774158423	127.031484885787	서울 강남구 강남대로 310	02-561-5080	월~금 08:00 ~ 17:00	http://blog.naver.com/crystaljini
황금열쇠 플라워로드점	//t1.kakaocdn.net/thumb/T800x0.q50/?fname=http%3A%2F%2Ft1.daumcdn.net%2Fplace%2F10BB221DEA4E4A38B205390DA1931624	4.5	37.5017905136596	127.027400007468	서울 강남구 봉은사로18길 76	02-6339-7357	NULL	NULL
시나브로	//t1.kakaocdn.net/thumb/T800x0.q50/?fname=http%3A%2F%2Ft1.kakaocdn.net%2Ffiy_reboot%2Fplace%2F40FFEEBB8C3F4883BB101FE83C492FBA	3.0	37.49734633041	127.032604845368	서울 강남구 논현로85길 71	NULL	월~금 07:30 ~ 22:00 / 토 10:00 ~ 20:00 / 일 10:00 ~ 18:00	NULL
오늘도 카페일리터 강남점	//t1.kakaocdn.net/thumb/T800x0.q50/?fname=http%3A%2F%2Ft1.daumcdn.net%2Fplace%2FECAB9B66438746E3AEE5E6135E8C56C7	4.3	37.5064658184862	127.037313744891	서울 강남구 봉은사로34길 28	070-4452-1994	NULL	NULL
퍼블릭갤러리	NULL	0.0	37.49057710415796	127.032461689296	서울 강남구 도곡로1길 10	070-4233-1122	NULL	http://www.public-gallery.com/
바나프레소 강남우성점	//t1.kakaocdn.net/thumb/T800x0.q50/?fname=http%3A%2F%2Ft1.daumcdn.net%2Fplace%2F92FD78A6CBF246AE9D4D0C4DFB180345	5.0	37.4915811693316	127.031188877672	서울 강남구 강남대로 318	070-8998-8991	월~금 07:00 ~ 21:00	https://www.banapresso.com
커피브라더 강남점	NULL	3.8	37.5052362336628	127.039208647228	서울 강남구 언주로99길 21-3	NULL	매일 11:00 ~ 02:00	NULL
카페큐릉	//t1.kakaocdn.net/thumb/T800x0.q50/?fname=http%3A%2F%2Ft1.daumcdn.net%2Fplace%2F0FCF6BF3CDAD4ACD9BFE620CE638DCE5	4.1	37.50282704153692	127.04864167852956	서울 강남구 테헤란로52길 21	NULL	NULL	NULL
마말레이드 커피바	//t1.kakaocdn.net/thumb/T800x0.q50/?fname=http%3A%2F%2Ft1.kakaocdn.net%2Ffiy_reboot%2Fplace%2FBBBFD7A8A1DF48849A063D03DBD1E424	5.0	37.5015259993136	127.032960640456	서울 강남구 테헤란로19길 23	NULL	매일 00:00 ~ 24:00	NULL
콜렉티보 강남파이낸스센터점	//t1.kakaocdn.net/thumb/T800x0.q50/?fname=http%3A%2F%2Ft1.daumcdn.net%2Fplace%2F34786EF2E6A0469B8F61C1675215BB20	4.2	37.5000256705937	127.036546053913	서울 강남구 테헤란로 152	NULL	월~금 08:00 ~ 20:00	https://www.instagram.com/colectivo.coffee
아리스타커피 역삼초교점	NULL	4.3	37.4919036645941	127.031435520519	서울 강남구 강남대로66길 7	02-557-1411	일요일	http://www.aristacoffee.co.kr/
카페자스 역삼점	NULL	4.0	37.5007653427083	127.033696527009	서울 강남구 테헤란로19길 10	070-8129-4455	NULL	http://cafejass.co.kr
타이지엔 선릉역점	NULL	2.4	37.5042212719949	127.045437443031	서울 강남구 테헤란로47길 8	02-552-2750	NULL	https://www.instagram.com/taizen_seolleung/
일리카페 오렌지나인점	//t1.kakaocdn.net/thumb/T800x0.q50/?fname=http%3A%2F%2Ft1.daumcdn.net%2Fplace%2FE27E02069F1E44209D5C624DEC9B0ADB	4.0	37.5076498331634	127.037014616163	서울 강남구 언주로107길 26	02-508-1251	매일 10:00 ~ 22:00	http://illycaffe.co.kr/
파운드커피 역삼점	//t1.kakaocdn.net/thumb/T800x0.q50/?fname=http%3A%2F%2Ft1.daumcdn.net%2Fplace%2F44B361DFEF344EB992CB127E29AE208F	4.7	37.5003205601613	127.032575604243	서울 강남구 테헤란로13길 10	02-555-8449	월~금 08:00 ~ 20:00 / 토,일 09:00 ~ 20:00	NULL
위싱웰	//t1.kakaocdn.net/thumb/T800x0.q50/?fname=http%3A%2F%2Ft1.daumcdn.net%2Fplace%2F1A3BCAE0098C42AABB04C4D6E01A366A	5.0	37.502399727661725	127.0368469081021	서울 강남구 논현로94길 5	070-8836-9759	월~금 08:00 ~ 19:00 / 토,일 12:00 ~ 18:00	https://www.instagram.com/wishingwell_allday/
매머드익스프레스 역삼언주로점	NULL	5.0	37.5009289040578	127.040753479915	서울 강남구 언주로85길 32	NULL	월~금 07:00 ~ 17:00 / 토 10:00 ~ 15:00	http://www.mmthcoffee.com
015COFFEE	//t1.kakaocdn.net/thumb/T800x0.q50/?fname=http%3A%2F%2Ft1.daumcdn.net%2Fplace%2F6E781DFB96AE4963ADBEC650F8D1490E	3.6	37.5012120305836	127.027560385932	서울 강남구 봉은사로18길 84	NULL	NULL	NULL
이디야커피 역삼월드점	//t1.kakaocdn.net/thumb/T800x0.q50/?fname=http%3A%2F%2Ft1.kakaocdn.net%2Ffiy_reboot%2Fplace%2FA47ABBED04154B4AB24C9C92AB3ABFBE	3.8	37.4983708904663	127.04809370787	서울 강남구 역삼로52길 14	02-566-6705	월~금 08:00 ~ 22:00 / 토,일 09:00 ~ 21:00	http://www.ediya.com
쿠키프렌즈카페	//t1.kakaocdn.net/thumb/T800x0.q50/?fname=http%3A%2F%2Ft1.daumcdn.net%2Flocalfiy%2FB63B967BFA2A4AD1AEAD311DD48F9694	4.0	37.5032860708126	127.027880074998	서울 강남구 강남대로102길 35	02-555-8340	NULL	https://www.instagram.com/cookiefriends.official
아카에이치에스 커피	//t1.kakaocdn.net/thumb/T800x0.q50/?fname=http%3A%2F%2Ft1.daumcdn.net%2Fplace%2F96FD851B03B243A7A86B6AEE4BE6DDE1	4.5	37.49550787394998	127.03074722581822	서울 강남구 테헤란로4길 46	NULL	월~금 07:00 ~ 22:00	NULL
커피볶는zip	//t1.kakaocdn.net/thumb/T800x0.q50/?fname=http%3A%2F%2Ft1.kakaocdn.net%2Fmystore%2F94A6FE102BEE481A9106C218E7A0C2F4	5.0	37.49549744014953	127.03580202389216	서울 강남구 역삼로17길 9	010-3256-4243	월~금 08:30 ~ 18:00	NULL
커피데스크	//t1.kakaocdn.net/thumb/T800x0.q50/?fname=http%3A%2F%2Ft1.daumcdn.net%2Fplace%2F5628ECFB9BA94F2692B467CE3665B688	5.0	37.5046369358732	127.042198608125	서울 강남구 언주로 514	NULL	월~금 08:00 ~ 24:00 / 토,일 10:00 ~ 18:00	NULL
조수경라이브클럽	NULL	0.0	37.50468241465796	127.035408309226	서울 강남구 논현로 542	NULL	NULL	NULL
스토어인스토리	NULL	0.0	37.5031311989534	127.037309823415	서울 강남구 테헤란로27길 27	02-720-1379	NULL	NULL
빈티지38	//t1.kakaocdn.net/thumb/T800x0.q50/?fname=http%3A%2F%2Ft1.daumcdn.net%2Flocal%2FkakaomapPhoto%2Freview%2Ff867fbf76c5648d49f6ed741e848fa7879bbbdb1%3Foriginal	3.5	37.50332070773805	127.02613616873472	서울 강남구 봉은사로2길 21	NULL	NULL	NULL
헬로에이치스페이스	//t1.kakaocdn.net/thumb/T800x0.q50/?fname=http%3A%2F%2Ft1.kakaocdn.net%2Fmystore%2F18CE9284883D4825AAAFAB5615B935AA	0.0	37.5062177882936	127.038108707366	서울 강남구 봉은사로38길 32	02-555-5285	월~토 11:00 ~ 20:00	https://instagram.com/hellohspace
케이크컴퍼니	//t1.kakaocdn.net/thumb/T800x0.q50/?fname=http%3A%2F%2Ft1.kakaocdn.net%2Ffiy_reboot%2Fplace%2FA4D5384CD57E44D3BD9B004D4E4B5793	1.0	37.499184647286	127.02806853854	서울 강남구 강남대로94길 10	NULL	NULL	NULL
바나프레소 역삼시티점	//t1.kakaocdn.net/thumb/T800x0.q50/?fname=http%3A%2F%2Ft1.kakaocdn.net%2Ffiy_reboot%2Fplace%2F393883E42B9449738C879B65A5FCD41A	4.0	37.498138004539626	127.03371117855748	서울 강남구 논현로85길 52	070-8998-8956	월~금 07:00 ~ 20:00 / 월~금 라스트오더 ~ 19:30	https://www.banapresso.com/
앤드커피	//t1.kakaocdn.net/thumb/T800x0.q50/?fname=http%3A%2F%2Ft1.daumcdn.net%2Fplace%2FB608FAE4E22941CC8F5EE90A2D4558F1	4.5	37.4956079182295	127.033920375632	서울 강남구 역삼로9길 24	02-552-6022	매일 09:00 ~ 21:00	https://www.instagram.com/and_coffee_y/
빽다방 강남역지하도점	NULL	3.4	37.49802059995652	127.0278453221759	서울 강남구 강남대로 지하 396	02-3452-3989	월~금 06:30 ~ 21:30 / 토 08:00 ~ 20:00	http://www.paikdabang.com
티클라우드 바이마키아티 역삼점	//t1.kakaocdn.net/thumb/T800x0.q50/?fname=http%3A%2F%2Ft1.daumcdn.net%2Fplace%2F81924E80C17C4C10A543559BFEBBEFF9	0.0	37.4949798844759	127.0370275862	서울 강남구 역삼로 164	02-548-8511	NULL	NULL
라운지 희움	//t1.kakaocdn.net/thumb/T800x0.q50/?fname=http%3A%2F%2Ft1.kakaocdn.net%2Ffiy_reboot%2Fplace%2F546EAAED5F794F15A6622FA0B8CEF2DC	5.0	37.505036904967234	127.0307816696302	서울 강남구 봉은사로18길 15-5	070-4126-1234	화~토 11:00 ~ 21:00	https://www.instagram.com/lounge_heeum/
통통커피	//t1.kakaocdn.net/thumb/T800x0.q50/?fname=http%3A%2F%2Ft1.daumcdn.net%2Fplace%2FD16F180F8AAE409C8CAD07554B127C39	5.0	37.4961752144866	127.040696616347	서울 강남구 역삼로26길 3	NULL	월~금 08:00 ~ 20:00 / 토 10:00 ~ 19:00	NULL
커피에반하다 역삼디오빌점 스마트카페	//t1.kakaocdn.net/thumb/T800x0.q50/?fname=http%3A%2F%2Ft1.kakaocdn.net%2Ffiy_reboot%2Fplace%2F7A0C07ECEFDF4F36AAE2DB172AEF4DB7	0.0	37.5014580116109	127.042689899318	서울 강남구 언주로 427	070-4493-7699	매일 00:00 ~ 24:00	https://coffeebanhada.com
줄리안스브레드	//t1.kakaocdn.net/thumb/T800x0.q50/?fname=http%3A%2F%2Ft1.daumcdn.net%2Fplace%2FBC657FC70B0543E3AC88FBBBBA946554	0.0	37.5063493515565	127.031978797978	서울 강남구 봉은사로 156	NULL	월~금 07:30 ~ 18:30 / 토 07:30 ~ 14:30	NULL
비유어거트	//t1.kakaocdn.net/thumb/T800x0.q50/?fname=http%3A%2F%2Ft1.daumcdn.net%2Flocal%2FkakaomapPhoto%2Freview%2Fd235628979263aaddc318577cc41ffa56dc12c9f%3Foriginal	3.9	37.4977274262053	127.029279146213	서울 강남구 테헤란로4길 6	02-566-1116	월~금 08:00 ~ 20:00 / 토 10:00 ~ 20:00	NULL
카페드몽슈슈 선정릉점	//t1.kakaocdn.net/thumb/T800x0.q50/?fname=http%3A%2F%2Ft1.daumcdn.net%2Flocalfiy%2Fsearchregister_1797896488	5.0	37.5097291606445	127.042907245401	서울 강남구 봉은사로 328	02-566-1271	NULL	NULL
라바게트 역삼점	//t1.kakaocdn.net/thumb/T800x0.q50/?fname=http%3A%2F%2Ft1.daumcdn.net%2Fplace%2F77FE6CD24A4147779E28E4751A62CB2A	5.0	37.495555925626746	127.04403788033846	서울 강남구 언주로67길 19	NULL	월~금 08:00 ~ 20:00 / 토,일 09:00 ~ 19:00	https://labaguette.kr/
