cafe_name	image_url	rating	latitude	longitude	address	tel	opening_hour	homepage_url
정월	https://search.pstatic.net/common/?autoRotate=true&type=w560_sharpen&src=https%3A%2F%2Fldb-phinf.pstatic.net%2F20190510_203%2F1557479953024HXRbs_JPEG%2FYgCUkP5yKk_14_nnud0w0WyY.jpg	NULL	37.5036729	127.0286442	서울 강남구 강남대로102길 46 1층	0507-1339-0926	월 12:00 - 22:00 / 화 12:00 - 22:00 / 수 12:00 - 22:00 / 목 12:00 - 22:00 / 금 12:00 - 22:00 / 토 12:00 - 22:00 / 일 12:00 - 22:00	https://www.instagram.com/cafe_jungwol
프라텔리	https://search.pstatic.net/common/?autoRotate=true&type=w560_sharpen&src=https%3A%2F%2Fldb-phinf.pstatic.net%2F20221216_243%2F1671183507111QlLlg_JPEG%2FKakaoTalk_20221216_182511120.jpg	NULL	37.502847	127.0269352	서울 강남구 봉은사로4길 31	0507-1449-0346	매일 12:00 - 23:00	https://www.instagram.com/fratelli_odt
트리오드	https://search.pstatic.net/common/?autoRotate=true&type=w560_sharpen&src=https%3A%2F%2Fldb-phinf.pstatic.net%2F20240324_145%2F1711255383347DOibB_JPEG%2FIMG_1913.jpeg	NULL	37.4996515	127.0296218	서울 강남구 강남대로94길 28 유니언타운 L층	0507-1337-9427	월 11:00 - 22:00 / 화 11:00 - 22:00 / 수 11:00 - 22:00 / 목 11:00 - 22:00 / 금 11:00 - 22:00 / 토 11:00 - 22:00 / 일 11:00 - 22:00	https://www.nextkitchencompany.com/
썸띵어바웃커피	https://search.pstatic.net/common/?autoRotate=true&type=w560_sharpen&src=https%3A%2F%2Fldb-phinf.pstatic.net%2F20200410_63%2F1586525835413cIJAS_JPEG%2FtgP2t6xLpFwDN_PCxDkLFXzU.jpeg.jpg	NULL	37.5028451	127.0278381	서울 강남구 강남대로102길 30 1, 2, 3층	02-538-6991	매일 11:00 - 22:30	NULL
알베르	https://search.pstatic.net/common/?autoRotate=true&type=w560_sharpen&src=https%3A%2F%2Fldb-phinf.pstatic.net%2F20210509_87%2F1620541361661OMRUl_JPEG%2FtEEdIzEFLcIhVftLCEiahq2b.jpeg.jpg	NULL	37.5030493	127.0281256	서울 강남구 강남대로102길 34 1	02-566-6181	매일 10:00 - 23:00	http://instagram.com/alver_coffee
팡뮤제 베이커리 강남본점	https://search.pstatic.net/common/?autoRotate=true&quality=95&type=w750&src=https%3A%2F%2Fldb-phinf.pstatic.net%2F20240101_264%2F1704113136861OX5ov_JPEG%2F1000066083.jpg	NULL	37.4962852	127.0321077	서울 강남구 테헤란로8길 40 1층	0507-1476-8318	월 07:30 - 23:00 / 화 07:30 - 23:00 / 수 07:30 - 23:00 / 목 07:30 - 23:00 / 금 07:30 - 23:00 / 토 09:00 - 23:00 / 일 09:00 - 22:00	https://www.instagram.com/panmusee_gangnam
어퍼앤언더	https://search.pstatic.net/common/?autoRotate=true&type=w560_sharpen&src=https%3A%2F%2Fldb-phinf.pstatic.net%2F20220108_22%2F1641642743129dMNdJ_JPEG%2F78531A52-0927-43A4-AF7F-DFA8F61D4065.jpeg	NULL	37.5027528	127.0277258	서울 강남구 강남대로102길 28 지하1층, 1층, 2층	02-557-6991	매일 11:00 - 22:00	NULL
베이커스트 브라운	https://search.pstatic.net/common/?autoRotate=true&type=w560_sharpen&src=https%3A%2F%2Fldb-phinf.pstatic.net%2F20230304_36%2F1677907120502iRlKy_JPEG%2F66778936-BBB2-45AA-9F92-E74E811DA426.jpeg	NULL	37.5025035	127.0272434	서울 강남구 강남대로102길 21 지하1, 지상1~3층	02-558-6991	매일 11:00 - 22:30	NULL
가배도 신논현	https://search.pstatic.net/common/?autoRotate=true&type=w560_sharpen&src=https%3A%2F%2Fldb-phinf.pstatic.net%2F20180902_158%2F1535886187305HplCQ_JPEG%2FE5shWZzcvAQRHowrEeulALEo.jpg	NULL	37.504037	127.0259474	서울 강남구 강남대로110길 13 2,3층	02-554-4542	월 11:00 - 21:00 / 화 11:00 - 21:00 / 수 11:00 - 21:00 / 목 11:00 - 21:00 / 금 11:00 - 21:00 / 토 11:00 - 21:00 / 일 11:00 - 21:00	http://gbdcoffee.com
에이비카페	https://search.pstatic.net/common/?autoRotate=true&type=w560_sharpen&src=https%3A%2F%2Fldb-phinf.pstatic.net%2F20231114_158%2F1699959126504u7DWl_JPEG%2Fabcafe.jpeg	NULL	37.5029149	127.0279438	서울 강남구 강남대로102길 32	02-566-2052	매일 00:00 - 24:0008:00 - 09:00 브레이크타임	http://www.abcafe.co.kr/
스크렘	https://search.pstatic.net/common/?autoRotate=true&type=w560_sharpen&src=https%3A%2F%2Fldb-phinf.pstatic.net%2F20230602_18%2F16857111119886sd7j_JPEG%2FBDF8157E-6CBC-4C77-9B19-F6F2B536E6F5.jpeg	NULL	37.5037422	127.0265049	서울 강남구 봉은사로4길 17 1F	0507-1374-4050	월 12:00 - 22:00 / 화 12:00 - 22:00 / 수 12:00 - 22:00 / 목 12:00 - 22:00 / 금 12:00 - 22:00 / 토 12:00 - 22:00 / 일 12:00 - 21:00	http://instagram.com/cafe.screme
지유가오카핫초메 선릉점	https://search.pstatic.net/common/?autoRotate=true&type=w560_sharpen&src=https%3A%2F%2Fldb-phinf.pstatic.net%2F20231206_271%2F1701838275211K6eIm_JPEG%2F6303779C-6E08-49BE-9547-A85EEB72E452.jpeg	NULL	37.5026646	127.047119	서울 강남구 테헤란로52길 16 역삼동 709-5 테헤란아이파크11호	0507-1420-6226	월 09:00 - 21:00 / 화 09:00 - 21:30 / 수 09:00 - 21:30 / 목 09:00 - 21:30 / 금 09:00 - 21:30 / 토 10:00 - 21:30 / 일 10:00 - 19:00	https://www.instagram.com/jiyugaoka_seolleung
카페413프로젝트	https://search.pstatic.net/common/?autoRotate=true&type=w560_sharpen&src=https%3A%2F%2Fldb-phinf.pstatic.net%2F20160630_273%2F14672146091006Rqk3_JPEG%2F176580406668965_0.jpeg	NULL	37.5023582	127.0344906	서울 강남구 논현로97길 19-11	070-7798-0544	월 정기휴무 (매주 월요일) / 화 10:30 - 22:00 / 수 10:30 - 22:00 / 목 10:30 - 22:00 / 금 10:30 - 22:00 / 토 10:30 - 22:00 / 일 10:30 - 21:00	http://www.instagram.com/cafe413project/
바게트케이	https://search.pstatic.net/common/?autoRotate=true&type=w560_sharpen&src=https%3A%2F%2Fldb-phinf.pstatic.net%2F20220916_222%2F1663307601022vvDSo_JPEG%2FScreenshot_20220915-222559_KakaoMap.jpg	NULL	37.5002997	127.0414642	서울 강남구 테헤란로34길 21-10	02-567-9501	월 06:30 - 19:30 / 화 06:30 - 19:30 / 수 06:30 - 19:30 / 목 06:30 - 19:30 / 금 06:30 - 19:30 / 토 06:30 - 19:30 / 일 06:30 - 19:30	https://smartstore.naver.com/baguette_k
셀렉티드마롱	https://search.pstatic.net/common/?autoRotate=true&type=w560_sharpen&src=https%3A%2F%2Fldb-phinf.pstatic.net%2F20240220_85%2F1708427143212rCnId_PNG%2F%25B8%25DE%25B4%25BA1.png	NULL	37.4961927	127.030907	서울 강남구 테헤란로4길 37 1층 셀렉티드마롱	0507-1447-5104	월 08:00 - 22:00 / 화 08:00 - 22:00 / 수 08:00 - 22:00 / 목 08:00 - 22:00 / 금 08:00 - 22:00 / 토 11:00 - 22:00 / 일 11:00 - 22:00	https://www.instagram.com/sltdmlng
더달달	https://search.pstatic.net/common/?autoRotate=true&type=w560_sharpen&src=https%3A%2F%2Fldb-phinf.pstatic.net%2F20230321_167%2F167939304653224q1I_JPEG%2F%25C3%25CA%25C4%25DA%25BA%25F9%25BC%25F6.jpg	NULL	37.5031838	127.0284622	서울 강남구 강남대로102길 38-6	0507-1329-3737	매일 10:30 - 24:00	https://blog.naver.com/cafethedaldal
한과와락	NULL	NULL	37.5029355	127.0271771	서울 강남구 봉은사로4길 31-5	0507-1443-6204	월 정기휴무 (매주 월요일) / 화 11:30 - 22:00 / 수 11:30 - 22:00 / 목 11:30 - 22:00 / 금 11:30 - 22:00 / 토 11:30 - 22:00 / 일 11:30 - 22:00	https://www.instagram.com/hgwr_official
소과당 강남본점	https://search.pstatic.net/common/?autoRotate=true&type=w560_sharpen&src=https%3A%2F%2Fldb-phinf.pstatic.net%2F20220810_42%2F1660119748686qCXTl_JPEG%2F%25BC%25D2%25B0%25FA%25B4%25E7-100%25C7%25C1%25B7%25CE-%25BF%25EC%25B8%25AE%25BD%25D2%25B7%25CE-%25B8%25B8%25B5%25E7-%25BD%25D2-%25BC%25F6%25C7%25C3%25B7%25B9-%25C6%25D2%25C4%25C9%25C0%25CC%25C5%25A9-%25B8%25DE%25B4%25BA-004.jpg	NULL	37.4997492	127.028088	서울 강남구 강남대로96길 12 A동 2층 소과당	02-538-8188	월 11:00 - 22:00 / 화 11:00 - 22:00 / 수 11:00 - 22:00 / 목 11:00 - 22:00 / 금 11:00 - 22:00 / 토 11:00 - 22:00 / 일 11:00 - 22:00	https://www.instagram.com/sogwadang/
셀렉티드닉스	https://search.pstatic.net/common/?autoRotate=true&type=w560_sharpen&src=https%3A%2F%2Fldb-phinf.pstatic.net%2F20240220_80%2F1708427465220vR8EM_PNG%2F%25B8%25DE%25B4%25BA1.png	NULL	37.4961927	127.030907	서울 강남구 테헤란로4길 37 1층	0507-1393-5905	월 08:00 - 22:00 / 화 08:00 - 22:00 / 수 08:00 - 22:00 / 목 08:00 - 22:00 / 금 08:00 - 22:00 / 토 11:00 - 22:00 / 일 11:00 - 22:00	NULL
타우너스 에스프레소 바 역삼점	https://search.pstatic.net/common/?autoRotate=true&type=w560_sharpen&src=https%3A%2F%2Fldb-phinf.pstatic.net%2F20230217_214%2F1676595901196E5XlV_JPEG%2FKakaoTalk_20230217_095721419_05.jpg	NULL	37.4984729	127.0398589	서울 강남구 테헤란로28길 41 타우너스 1층	0507-1373-1467	월 08:00 - 21:00 / 화 08:00 - 21:00 / 수 08:00 - 21:00 / 목 08:00 - 21:00 / 금 08:00 - 21:00 / 토 09:00 - 22:00 / 일 09:00 - 22:00	https://espressobar.modoo.at/
베이커리로컬 강남역점	https://search.pstatic.net/common/?autoRotate=true&type=w560_sharpen&src=https%3A%2F%2Fldb-phinf.pstatic.net%2F20201125_180%2F1606269055893oQfWy_JPEG%2FevizMP60Xn5GyZSgdFZjGPOs.jpg	NULL	37.5022171	127.0270063	서울 강남구 강남대로102길 15	02-567-1119	매일 10:00 - 23:00	NULL
필메이트 강남점	https://search.pstatic.net/common/?autoRotate=true&type=w560_sharpen&src=https%3A%2F%2Fldb-phinf.pstatic.net%2F20240201_24%2F1706761637210AkL3c_JPEG%2F1.jpg	NULL	37.5001305	127.0276354	서울 강남구 테헤란로1길 28 1~3층	070-7038-4100	NULL	https://fillmate.co.kr/
테이블스	https://search.pstatic.net/common/?autoRotate=true&type=w560_sharpen&src=https%3A%2F%2Fldb-phinf.pstatic.net%2F20191216_232%2F1576431552450yYUoG_JPEG%2FmvNz_-AHKD2Ezv6GV5_cA0k5.jpg	NULL	37.4981949	127.033829	서울 강남구 논현로85길 52 역삼 푸르지오 시티	02-563-1144	매일 08:00 - 23:00	https://www.instagram.com/tables_yeoksam
카페 호두	https://search.pstatic.net/common/?autoRotate=true&type=w560_sharpen&src=https%3A%2F%2Fldb-phinf.pstatic.net%2F20231217_56%2F1702801933919PtKSk_JPEG%2FKakaoTalk_20231217_172911511_01.jpg	NULL	37.5042828	127.0285794	서울 강남구 봉은사로16길 36 1층	010-9886-3563	월 10:00 - 22:00 / 화 10:00 - 22:00 / 수 10:00 - 22:00 / 목 10:00 - 22:00 / 금 10:00 - 22:00 / 토 10:00 - 22:00 / 일 10:00 - 22:00	https://www.instagram.com/cafe.hodoo/
로젯런던베이글	https://search.pstatic.net/common/?autoRotate=true&type=w560_sharpen&src=https%3A%2F%2Fldb-phinf.pstatic.net%2F20230628_35%2F1687887514971bN1QW_JPEG%2FIMG_9215.	NULL	37.5031953	127.0391646	서울 강남구 테헤란로33길 20 1층	0507-1470-5459	월 08:30 - 22:00 / 화 08:30 - 22:00 / 수 08:30 - 22:00 / 목 08:30 - 22:00 / 금 08:30 - 22:00 / 토 10:00 - 16:00 / 일 10:00 - 16:00	NULL
원아베뉴	https://search.pstatic.net/common/?autoRotate=true&type=w560_sharpen&src=https%3A%2F%2Fldb-phinf.pstatic.net%2F20210831_229%2F1630388186520UNvbf_JPEG%2Fimage.jpg	NULL	37.4998944	127.0304055	서울 강남구 테헤란로7길 11 1층	0507-1471-0238	NULL	https://www.01avenue.co.kr/
로흐	https://search.pstatic.net/common/?autoRotate=true&type=w560_sharpen&src=https%3A%2F%2Fldb-phinf.pstatic.net%2F20240125_70%2F1706164883481zfqKi_JPEG%2FIMG_4836.jpeg	NULL	37.5008565	127.0320046	서울 강남구 테헤란로13길 17 1층 로흐	0507-1329-9326	월 12:00 - 20:00 / 화 12:00 - 20:00 / 수 12:00 - 20:00 / 목 12:00 - 20:00 / 금 12:00 - 20:00 / 토 정기휴무 (매주 토요일) / 일 정기휴무 (매주 일요일)	https://smartstore.naver.com/lorseoul
서울북카페 욕망의북카페	https://search.pstatic.net/common/?autoRotate=true&type=w560_sharpen&src=https%3A%2F%2Fldb-phinf.pstatic.net%2F20220613_7%2F1655108930139Pa8z8_JPEG%2FKakaoTalk_20220224_162756008_04.jpg	NULL	37.5038646	127.0282743	서울 강남구 강남대로102길 45 2층, 3층	0507-1486-0132	매일 10:00 - 22:00	https://www.instagram.com/yokmangbookcafe/
까치화방 강남역점	https://search.pstatic.net/common/?autoRotate=true&type=w560_sharpen&src=https%3A%2F%2Fldb-phinf.pstatic.net%2F20231129_19%2F1701221551683Dtlz8_PNG%2F%25B5%25FE%25B1%25E2_%25C5%25A9%25B1%25E2_%25BA%25AF%25C8%25AF.png	NULL	37.5032631	127.0267345	서울 강남구 봉은사로4길 23 1층	0507-1497-5535	월 11:00 - 22:00 / 화 11:00 - 22:00 / 수 11:00 - 22:00 / 목 11:00 - 22:00 / 금 11:00 - 22:00 / 토 11:00 - 22:00 / 일 11:00 - 22:00	https://www.instagram.com/cachi_flowercafe/
카페온화 강남점	https://search.pstatic.net/common/?autoRotate=true&type=w560_sharpen&src=https%3A%2F%2Fldb-phinf.pstatic.net%2F20210708_162%2F1625711356064lxzLL_JPEG%2Fnzi4Um5EG1WsejcBb2emPPMc.jpg	NULL	37.5024319	127.0271329	서울 강남구 봉은사로4길 37 2층	070-7715-2908	매일 11:00 - 22:00	https://www.instagram.com/onhwa_gangnam/
퍼스트커피랩 강남점	https://search.pstatic.net/common/?autoRotate=true&type=w560_sharpen&src=https%3A%2F%2Fldb-phinf.pstatic.net%2F20230925_216%2F1695634876212bMtnl_JPEG%2FKakaoTalk_20230921_193323535_01.jpg	NULL	37.5026909	127.0279657	서울 강남구 봉은사로6길 39 1층	02-555-7679	매일 11:00 - 01:00	https://www.instagram.com/firstcoffee_lab_gangnam
슬로우커피	https://search.pstatic.net/common/?autoRotate=true&type=w560_sharpen&src=https%3A%2F%2Fldb-phinf.pstatic.net%2F20231027_183%2F1698391168339ajtR9_JPEG%2F%25C5%25A9%25B1%25E2%25BA%25AF%25C8%25AFCEO05137-1-1.jpeg	NULL	37.4942036	127.0345282	서울 강남구 역삼로 136 신명빌딩 1층	0507-1339-0364	월 10:00 - 01:50 / 화 10:00 - 01:50 / 수 10:00 - 01:50 / 목 10:00 - 01:50 / 금 10:00 - 01:50 / 토 10:00 - 23:50 / 일 10:00 - 23:50	https://www.instagram.com/slowcoffee_seoul/
꼼다비뛰드	https://search.pstatic.net/common/?autoRotate=true&quality=95&type=w750&src=https%3A%2F%2Fldb-phinf.pstatic.net%2F20210403_52%2F1617459924276h6Ghe_JPEG%2FIMG_2625.	NULL	37.5033607	127.0295218	서울 강남구 강남대로110길 62 지하1층	0507-1379-8456	월 정기휴무 (매주 월요일) / 화 정기휴무 (매주 화요일) / 수 11:00 - 17:00 / 목 11:00 - 17:00 / 금 11:00 - 17:00 / 토 정기휴무 (매주 토요일) / 일 정기휴무 (매주 일요일)	https://instagram.com/comme__d_habitude?igshid=172bmgt2xw0dq
비아살라리아	https://search.pstatic.net/common/?autoRotate=true&type=w560_sharpen&src=https%3A%2F%2Fldb-phinf.pstatic.net%2F20240111_108%2F1704899603743Xzowt_JPEG%2Fviasalria.jpg	NULL	37.49486	127.0332775	서울 강남구 역삼로7길 10 융전빌딩 101호	0507-1431-2297	월 10:00 - 20:00 / 화 10:00 - 20:00 / 수 10:00 - 20:00 / 목 10:00 - 20:00 / 금 10:00 - 20:00 / 토 10:00 - 19:00 / 일 정기휴무 (매주 일요일)	https://www.instagram.com/via_salaria?utm_source=ig_web_button_share_sheet&igsh=ZDNlZDc0MzIxNw==
미니말레 커피뢰스터 역삼점	https://search.pstatic.net/common/?autoRotate=true&type=w560_sharpen&src=https%3A%2F%2Fldb-phinf.pstatic.net%2F20240303_33%2F1709399474971y17nr_JPEG%2FBBEE5F64-19C6-4378-AAFD-58BF58234F27-728-000004512389C9B3.jpg	NULL	37.5022673	127.0354999	서울 강남구 테헤란로25길 26 1층	070-4070-6648	월 08:00 - 23:00 / 화 08:00 - 23:00 / 수 08:00 - 23:00 / 목 08:00 - 23:00 / 금 08:00 - 23:00 / 토 09:00 - 23:00 / 일 09:00 - 23:00	https://www.instagram.com/minimale_kaffeeroster
빌리엔젤 강남역점	https://search.pstatic.net/common/?autoRotate=true&type=w560_sharpen&src=https%3A%2F%2Fnaverbooking-phinf.pstatic.net%2F20230612_211%2F16865470870166XGbg_JPEG%2F%25B3%25D7%25C0%25CC%25B9%25F6%25C7%25C3%25B7%25B9%25C0%25CC%25BD%25BA%25B5%25EE%25B7%25CF_%25BA%25F4%25B8%25AE%25BF%25A3%25C1%25A9.jpg	NULL	37.5014574	127.0270952	서울 강남구 테헤란로1길 48 강남ELS빌딩	070-5051-8135	매일 11:00 - 23:00	http://www.billyangel.co.kr/
겟썸커피 Downstairs	https://search.pstatic.net/common/?autoRotate=true&type=w560_sharpen&src=https%3A%2F%2Fldb-phinf.pstatic.net%2F20200723_137%2F1595473735438X9Wiu_JPEG%2FMVA7U4WEbdQ1Rc972qr1RdyI.jpeg.jpg	NULL	37.5030823	127.0272802	서울 강남구 봉은사로6길 30 지하 1층	0507-1317-3619	월 정기휴무 (매주 월요일) / 화 11:00 - 22:00 / 수 11:00 - 22:00 / 목 11:00 - 22:00 / 금 11:00 - 22:00 / 토 11:00 - 22:00 / 일 12:00 - 22:00	NULL
문화시민 서울	NULL	NULL	37.4910993	127.0343687	서울 강남구 강남대로62길 35 2층	070-4042-5795	월 12:00 - 20:00 / 화 12:00 - 20:00 / 수 12:00 - 20:00 / 목 12:00 - 20:00 / 금 12:00 - 20:00 / 토 12:00 - 20:00 / 일 12:00 - 20:00	http://catchtable.co.kr/kw4295
평화다방 강남역점	https://search.pstatic.net/common/?autoRotate=true&type=w560_sharpen&src=https%3A%2F%2Fldb-phinf.pstatic.net%2F20190529_164%2F15591194179022MdoV_JPEG%2F0Cq7oCWJRZ6ZODtq80lbsJEL.jpg	NULL	37.4991963	127.0282272	서울 강남구 강남대로94길 10 2층	070-4801-1386	매일 11:00 - 22:00	http://www.pyeonghwacoffee.com
퍼햅스	https://search.pstatic.net/common/?autoRotate=true&type=w560_sharpen&src=https%3A%2F%2Fldb-phinf.pstatic.net%2F20240314_198%2F1710345933390Wjl4V_PNG%2F1000038112.png	NULL	37.5004885	127.0396293	서울 강남구 논현로86길 27 1층 퍼햅스	02-554-6546	월 07:00 - 24:00 / 화 07:00 - 24:00 / 수 07:00 - 24:00 / 목 07:00 - 24:00 / 금 07:00 - 24:00 / 토 10:00 - 22:00 / 일 13:00 - 22:00	NULL
호랑가시	https://search.pstatic.net/common/?autoRotate=true&type=w560_sharpen&src=https%3A%2F%2Fldb-phinf.pstatic.net%2F20240216_256%2F1708050768255zgHRY_JPEG%2F_D3A2014.	NULL	37.5029725	127.0273201	서울 강남구 봉은사로6길 32 지하1층-3층	070-4158-0808	월 11:30 - 21:30 / 화 11:30 - 21:30 / 수 11:30 - 21:30 / 목 11:30 - 21:30 / 금 11:30 - 21:30 / 토 11:30 - 21:30 / 일 11:30 - 21:30	https://www.instagram.com/horang_gasi_official
크리에잇쿠키 역삼본점	https://search.pstatic.net/common/?autoRotate=true&type=w560_sharpen&src=https%3A%2F%2Fldb-phinf.pstatic.net%2F20240121_145%2F1705782311696o2NlA_JPEG%2FIMG_9493.jpeg	NULL	37.5029416	127.0351319	서울 강남구 테헤란로25길 36	010-4828-8710	월 08:00 - 21:00 / 화 08:00 - 21:00 / 수 08:00 - 21:00 / 목 08:00 - 21:00 / 금 08:00 - 21:00 / 토 08:00 - 21:00 / 일 08:00 - 21:00	http://www.cre8cookies.com
블루보틀 역삼 카페	https://search.pstatic.net/common/?autoRotate=true&quality=95&type=w750&src=https%3A%2F%2Fldb-phinf.pstatic.net%2F20210826_300%2F1629941815164fGmMH_JPEG%2F7RVvxdUxYs3VdVxdSJWXZYuO.jpg	NULL	37.4999326	127.0323679	서울 강남구 테헤란로 129 강남N타워 G층	1533-6906	월 08:00 - 20:00 / 화 08:00 - 20:00 / 수 08:00 - 20:00 / 목 08:00 - 20:00 / 금 08:00 - 20:00 / 토 08:00 - 20:30 / 일 08:00 - 20:30	https://www.bluebottlecoffeekorea.com/
크리스피크림도넛 강남역점	https://search.pstatic.net/common/?autoRotate=true&type=w560_sharpen&src=https%3A%2F%2Fldb-phinf.pstatic.net%2F20220826_115%2F166149031744176Q6B_JPEG%2F%25B3%25D7%25C0%25CC%25B9%25F6_%25B4%25EB%25C7%25A5%25C0%25CC%25B9%25CC%25C1%25F6_1_%25B4%25EB%25C1%25F6_1_%25B4%25EB%25C1%25F6_1.jpg	NULL	37.4965747	127.0288062	서울 강남구 강남대로 376 지하1층	0507-1369-1937	월 07:00 - 22:00 / 화 07:00 - 22:00 / 수 07:00 - 22:00 / 목 07:00 - 22:00 / 금 07:00 - 22:00 / 토 07:00 - 23:00 / 일 07:00 - 23:00	http://www.krispykreme.co.kr
알렉산더 커피 스튜디오	https://search.pstatic.net/common/?autoRotate=true&type=w560_sharpen&src=https%3A%2F%2Fldb-phinf.pstatic.net%2F20240326_207%2F1711455135938MPj6E_JPEG%2FIMG_7213.jpeg	NULL	37.5052052	127.0457776	서울 강남구 테헤란로51길 23 1층 알렉산더 커피 스튜디오	0507-1303-4128	월 07:00 - 18:00 / 화 07:00 - 18:00 / 수 07:00 - 18:00 / 목 07:00 - 18:00 / 금 07:00 - 18:00 / 토 10:00 - 18:00 / 일 정기휴무 (매주 일요일)	https://www.instagram.com/alexandercoffeestudio/
브라운홀릭	https://search.pstatic.net/common/?autoRotate=true&type=w560_sharpen&src=https%3A%2F%2Fldb-phinf.pstatic.net%2F20230206_190%2F1675666511394f5ODa_JPEG%2F7B2658ED-F5A1-400E-AE83-5D67ECA4212B.jpeg	NULL	37.5010841	127.0286866	서울 강남구 강남대로98길 25	02-555-5978	월 09:00 - 22:00 / 화 09:00 - 22:00 / 수 09:00 - 22:00 / 목 09:00 - 22:00 / 금 09:00 - 22:00 / 토 10:00 - 22:00 / 일 10:00 - 22:00	http://instagram.com/brownholic
지오바네커피	https://search.pstatic.net/common/?autoRotate=true&type=w560_sharpen&src=https%3A%2F%2Fldb-phinf.pstatic.net%2F20201014_184%2F1602659908619D6hta_JPEG%2FrFBpy9yw3pHoM1DojGz_XVEk.jpeg.jpg	NULL	37.5037183	127.0361414	서울 강남구 논현로98길 5 1층 101호	02-6952-3453	월 08:00 - 21:30 / 화 08:00 - 21:30 / 수 08:00 - 21:30 / 목 08:00 - 21:30 / 금 08:00 - 21:30 / 토 11:00 - 18:30 / 일 11:00 - 18:30	http://www.instagram.com/giovane_coffee
브릭샌드 강남역점	https://search.pstatic.net/common/?autoRotate=true&type=w560_sharpen&src=https%3A%2F%2Fldb-phinf.pstatic.net%2F20230606_210%2F1685979656356KdDa9_JPEG%2FKakaoTalk_20221202_155624541_03.jpg	NULL	37.4981647	127.0283079	서울 강남구 강남대로 396 강남역 신분당선 지하1층	0507-1316-9673	월 08:00 - 22:00 / 화 08:00 - 22:00 / 수 08:00 - 22:00 / 목 08:00 - 22:00 / 금 08:00 - 22:00 / 토 09:00 - 21:00 / 일 10:00 - 19:00	NULL
소디스에스프레소바 역삼	https://search.pstatic.net/common/?autoRotate=true&type=w560_sharpen&src=https%3A%2F%2Fldb-phinf.pstatic.net%2F20231127_300%2F1701071183798stFrk_JPEG%2F8903D8C5-A495-48D7-B566-FA2FAADFDF22.jpeg	NULL	37.4986377	127.0428418	서울 강남구 역삼로37길 11 1층	070-4179-7000	월 07:30 - 22:00 / 화 07:30 - 22:00 / 수 07:30 - 22:00 / 목 07:30 - 22:00 / 금 07:30 - 22:00 / 토 11:00 - 18:00 / 일 11:00 - 18:00	NULL
스타벅스 강남R점	https://search.pstatic.net/common/?autoRotate=true&type=w560_sharpen&src=https%3A%2F%2Fldb-phinf.pstatic.net%2F20190828_93%2F1566953601239OT9MQ_PNG%2FxX7Wv642gXMoTI0DAv0hRymS.png	NULL	37.497901	127.028709	서울 강남구 강남대로 390	1522-3232	월(4/1) 07:00 - 22:00 / 화(4/2) 07:00 - 22:00 / 수(4/3) 07:00 - 22:00 / 목(4/4) 07:00 - 22:00 / 금(4/5) 07:00 - 22:00 / 토(4/6) 07:00 - 22:00 / 일(3/31) 08:00 - 22:00	http://www.starbucks.co.kr/
레뽀드라라 강남점	https://search.pstatic.net/common/?autoRotate=true&type=w560_sharpen&src=https%3A%2F%2Fldb-phinf.pstatic.net%2F20231023_254%2F1698044173440Gayvr_PNG%2FEFD748E8-B4B4-4483-B031-D9C30CA4D591.png	NULL	37.5007218	127.0307403	서울 강남구 테헤란로7길 22 2관 101호	0507-1352-3177	월 07:30 - 21:00 / 화 07:30 - 21:00 / 수 07:30 - 21:00 / 목 07:30 - 21:00 / 금 07:30 - 21:00 / 토 11:00 - 21:00 / 일 11:00 - 21:00	https://www.instagram.com/repos_de_lala/
fyi	https://search.pstatic.net/common/?autoRotate=true&type=w560_sharpen&src=https%3A%2F%2Fldb-phinf.pstatic.net%2F20210217_25%2F1613549594107nFzQI_JPEG%2Fp0Me92g3xo6nhQQ2io8aEtW_.jpg	NULL	37.4954617	127.0388737	서울 강남구 역삼로 180 1층 fyi	0507-1486-1384	월 09:00 - 19:00 / 화 09:00 - 19:00 / 수 09:00 - 19:00 / 목 09:00 - 19:00 / 금 09:00 - 19:00 / 토 11:00 - 18:00 / 일 11:00 - 18:00	https://www.instagram.com/fyi_lounge/
아야커피	https://search.pstatic.net/common/?autoRotate=true&type=w560_sharpen&src=https%3A%2F%2Fldb-phinf.pstatic.net%2F20201018_163%2F1603002576656Yzkg0_JPEG%2FQ96k11ns7jmstM-OGTsL_kh1.jpg	NULL	37.5044842	127.0431087	서울 강남구 언주로94길 11 1층	02-556-2369	월 08:00 - 20:00 / 화 08:00 - 20:00 / 수 08:00 - 20:00 / 목 08:00 - 20:00 / 금 08:00 - 20:00 / 토 11:00 - 19:00 / 일 11:00 - 19:00	https://www.youtube.com/channel/UCB8K-UT4ue5FiTXWjFofG0Q?view_as=subscriber
106길 15	https://search.pstatic.net/common/?autoRotate=true&type=w560_sharpen&src=https%3A%2F%2Fldb-phinf.pstatic.net%2F20210909_249%2F1631187635722z6GBK_JPEG%2F6toO9nVkNNXKZjHViCqrPPRh.jpeg.jpg	NULL	37.5031403	127.0268168	서울 강남구 강남대로106길 15 지하1층	0507-1436-8521	월 11:00 - 22:00 / 화 11:00 - 22:00 / 수 11:00 - 22:00 / 목 11:00 - 22:00 / 금 11:00 - 22:00 / 토 11:00 - 22:00 / 일 11:00 - 22:00	https://www.instagram.com/cafe.106gil_15
베통 역삼 센트럴키친	https://search.pstatic.net/common/?autoRotate=true&type=w560_sharpen&src=https%3A%2F%2Fldb-phinf.pstatic.net%2F20230627_166%2F1687846474097MVJ0Q_JPEG%2F%25BF%25AA%25BB%25EF%25B8%25AE%25B4%25BA%25BE%25F3_2_%25C0%25FA%25BF%25EB%25B7%25AE.jpg	NULL	37.502327	127.0444447	서울 강남구 테헤란로44길 8	02-556-2111	NULL	http://www.instagram.com/beton.kr
아방베이커리 센터필드점	https://search.pstatic.net/common/?autoRotate=true&type=w560_sharpen&src=https%3A%2F%2Fldb-phinf.pstatic.net%2F20220329_120%2F16485396718802nx9M_PNG%2F%25BC%25BE%25C5%25CD%25C7%25CA%25B5%25E5_%25B7%25CE%25B0%25ED.png	NULL	37.5028813	127.0413566	서울 강남구 테헤란로 231 센터필드 웨스트동 1층 아방 베이커리	0507-1374-7220	월 08:30 - 21:00 / 화 08:30 - 21:00 / 수 08:30 - 21:00 / 목 08:30 - 21:00 / 금 08:30 - 21:00 / 토 09:30 - 21:00 / 일 09:30 - 21:00	http://avantbakery.com/
로얄마카롱	https://search.pstatic.net/common/?autoRotate=true&type=w560_sharpen&src=https%3A%2F%2Fldb-phinf.pstatic.net%2F20230526_109%2F1685077911181AA1Nc_JPEG%2FKakaoTalk_20210722_155451407.jpg	NULL	37.5022673	127.0354999	서울 강남구 테헤란로25길 26 3층 로얄마카롱	0507-1323-7763	매일 08:30 - 23:00	http://www.instagram.com/royal__macaron
커피스니퍼 역삼 센터필드점	https://search.pstatic.net/common/?autoRotate=true&type=w560_sharpen&src=https%3A%2F%2Fldb-phinf.pstatic.net%2F20231114_168%2F1699920365208JGAIu_JPEG%2FKakaoTalk_20230907_154340734.jpg	NULL	37.5028813	127.0413566	서울 강남구 테헤란로 231 센터필드 지상 2층 E207호 커피스니퍼	02-6985-7215	월 08:00 - 20:00 / 화 08:00 - 20:00 / 수 08:00 - 20:00 / 목 08:00 - 20:00 / 금 08:00 - 20:00 / 토 08:00 - 20:00 / 일 08:00 - 20:00	https://blog.naver.com/koffeesniffer
클로리스 역삼 GFC점	https://search.pstatic.net/common/?autoRotate=true&type=w560_sharpen&src=https%3A%2F%2Fldb-phinf.pstatic.net%2F20220713_144%2F1657679357362f5u5K_PNG%2F01_%25BE%25F7%25B7%25CE%25B5%25E5%25BF%25EB%25C0%25FA%25C8%25AD%25C1%25FA.png	NULL	37.5000263	127.0365456	서울 강남구 테헤란로 152 강남파이낸스센터 지하1층	02-553-7523	월 09:00 - 21:30 / 화 09:00 - 21:30 / 수 09:00 - 21:30 / 목 09:00 - 21:30 / 금 09:00 - 21:30 / 토 11:30 - 18:00 / 일 11:30 - 18:00	NULL
비건비거닝	https://search.pstatic.net/common/?autoRotate=true&type=w560_sharpen&src=https%3A%2F%2Fldb-phinf.pstatic.net%2F20210606_120%2F1622947577220a5gGD_JPEG%2FjnDNdMZEWjrmkMYe-zVmPdLJ.jpg	NULL	37.5030383	127.0491231	서울 강남구 선릉로85길 6 호텔뉴브 1층 비건비거닝	02-740-5060	월 08:00 - 19:00 / 화 08:00 - 19:00 / 수 08:00 - 19:00 / 목 08:00 - 19:00 / 금 08:00 - 19:00 / 토 08:00 - 19:00 / 일 정기휴무 (매주 일요일)	http://www.aerak.com/
인포메이션카페	https://search.pstatic.net/common/?autoRotate=true&type=w560_sharpen&src=https%3A%2F%2Fldb-phinf.pstatic.net%2F20220918_195%2F16635080909402ijDS_JPEG%2FKakaoTalk_20220918_222411768_07.jpg	NULL	37.4940797	127.0326772	서울 강남구 역삼로 121 1층	0507-1386-2046	월 08:00 - 22:00 / 화 08:00 - 22:00 / 수 08:00 - 22:00 / 목 08:00 - 22:00 / 금 08:00 - 22:00 / 토 10:00 - 22:00 / 일 정기휴무 (매주 일요일)	http://instagram.com/information_cafe
해머스미스커피 본점	https://search.pstatic.net/common/?autoRotate=true&type=w560_sharpen&src=https%3A%2F%2Fldb-phinf.pstatic.net%2F20220908_156%2F1662568412979Reqa8_JPEG%2F%25C7%25D8%25B8%25D3_%25BF%25AA%25BB%25EF1.jpg	NULL	37.5024806	127.0369399	서울 강남구 논현로94길 7	02-6406-0888	월 08:00 - 18:00 / 화 08:00 - 18:00 / 수 08:00 - 18:00 / 목 08:00 - 18:00 / 금 08:00 - 18:00 / 토 11:00 - 18:00 / 일 정기휴무 (매주 일요일)	http://www.hammersmith.co.kr
투오프커피	https://search.pstatic.net/common/?autoRotate=true&type=w560_sharpen&src=https%3A%2F%2Fldb-phinf.pstatic.net%2F20240223_37%2F1708649773513DHzoC_JPEG%2F%25C5%25A9%25B1%25E2%25BA%25AF%25C8%25AF1.jpg	NULL	37.495297	127.0339254	서울 강남구 역삼로9길 20 1층	070-7704-6600	월 08:00 - 21:00 / 화 08:00 - 21:00 / 수 08:00 - 21:00 / 목 08:00 - 21:00 / 금 08:00 - 21:00 / 토 정기휴무 (매주 토요일) / 일 정기휴무 (매주 일요일)	https://www.instagram.com/offoff_coffee
21케이크	https://search.pstatic.net/common/?autoRotate=true&type=w560_sharpen&src=https%3A%2F%2Fldb-phinf.pstatic.net%2F20220216_250%2F16449478197533KLyr_JPEG%2F1644661530865.jpg	NULL	37.5037013	127.0390997	서울 강남구 언주로93길 32-7 1층	0507-1487-0078	월 12:00 - 19:00 / 화 12:00 - 19:00 / 수 12:00 - 19:00 / 목 12:00 - 19:00 / 금 12:00 - 19:00 / 토 12:00 - 18:00 / 일 12:00 - 18:00	https://instagram.com/21cake_?utm_medium=copy_link
강남고망고케이크	https://search.pstatic.net/common/?autoRotate=true&type=w560_sharpen&src=https%3A%2F%2Fldb-phinf.pstatic.net%2F20230416_27%2F16816127588344VA19_JPEG%2FC15F035E-FA2E-40BF-BE7B-1CB716E4DBC4.jpeg	NULL	37.4963697	127.0301725	서울 강남구 테헤란로4길 32 역삼동우정에쉐르1 1층 102호	0507-1341-7841	매일 11:00 - 19:00	https://blog.naver.com/gomango_cake
리퍼크	https://search.pstatic.net/common/?autoRotate=true&type=w560_sharpen&src=https%3A%2F%2Fldb-phinf.pstatic.net%2F20201030_109%2F1604028940357nlCzS_JPEG%2FVPVsyoCKjD3sxgdSI8fvjP9u.jpg	NULL	37.4971261	127.0287132	서울 강남구 강남대로 382 메리츠타워 1층	0507-1366-8208	월 07:30 - 21:00 / 화 07:30 - 21:00 / 수 07:30 - 21:00 / 목 07:30 - 21:00 / 금 07:30 - 21:00 / 토 10:00 - 19:00 / 일 10:00 - 19:00	https://www.instagram.com/reperk_meritztower/
잇테이블	https://search.pstatic.net/common/?autoRotate=true&type=w560_sharpen&src=https%3A%2F%2Fldb-phinf.pstatic.net%2F20220306_17%2F1646536679395OpwsX_JPEG%2FA3D87A64-BDBA-4039-BF00-64DBB312D9C9.jpeg	NULL	37.4940767	127.0352655	서울 강남구 역삼로14길 8	02-552-6662	월 08:00 - 24:00 / 화 08:00 - 24:00 / 수 08:00 - 24:00 / 목 08:00 - 24:00 / 금 08:00 - 24:00 / 토 10:00 - 24:00 / 일 10:00 - 24:00	https://blog.naver.com/mi_00
보노	https://search.pstatic.net/common/?autoRotate=true&type=w560_sharpen&src=https%3A%2F%2Fldb-phinf.pstatic.net%2F20201006_121%2F1601962617178fWmK4_JPEG%2F6dLG-CP1S52f0x5-aX2rowMJ.jpg	NULL	37.4999547	127.0287967	서울 강남구 강남대로96길 22 1층	0507-1354-7202	월 08:00 - 22:00 / 화 08:00 - 22:00 / 수 08:00 - 22:00 / 목 08:00 - 22:00 / 금 08:00 - 23:00 / 토 09:00 - 23:00 / 일 09:00 - 22:00	http://instagram.com/bono_cxw
수수커피 강남N타워점	https://search.pstatic.net/common/?autoRotate=true&type=w560_sharpen&src=https%3A%2F%2Fldb-phinf.pstatic.net%2F20190723_103%2F1563816815927u6Gjk_JPEG%2F5YCZLX64S2ua9677qO1zZFik.jpeg.jpg	NULL	37.4999326	127.0323679	서울 강남구 테헤란로 129 강남N타워 G층 2호 수수커피	02-6250-0925	월 08:00 - 21:50 / 화 08:00 - 21:50 / 수 08:00 - 21:50 / 목 08:00 - 21:50 / 금 08:00 - 21:50 / 토 12:00 - 20:50 / 일 12:00 - 20:50	http://smartstore.naver.com/soosoocoffee
로브니	https://search.pstatic.net/common/?autoRotate=true&type=w560_sharpen&src=https%3A%2F%2Fldb-phinf.pstatic.net%2F20191203_121%2F1575372750972TchO2_JPEG%2FA6VjdTYwsdQ8zUHSBmaMlDgG.jpeg.jpg	NULL	37.5028704	127.0488888	서울 강남구 선릉로85길 8	0507-1334-1816	월 11:00 - 20:00 / 화 11:00 - 20:00 / 수 11:00 - 20:00 / 목 11:00 - 20:00 / 금 11:00 - 20:00 / 토 11:00 - 18:30 / 일(3/31) 휴무	http://instagram.com/laubenuit_official
킷사텐 역삼점	https://search.pstatic.net/common/?autoRotate=true&type=w560_sharpen&src=https%3A%2F%2Fldb-phinf.pstatic.net%2F20231011_90%2F1696951199160Jr6U4_JPEG%2FKakaoTalk_20221025_121324072_01.jpg	NULL	37.5001744	127.0415211	서울 강남구 언주로85길 23-10 1층(역삼동, 역삼동제이빌딩)	0507-1389-1525	월 06:10 - 23:30 / 화 06:10 - 23:30 / 수 06:10 - 23:30 / 목 06:10 - 23:30 / 금 06:10 - 23:30 / 토 09:10 - 23:00 / 일 09:10 - 23:00	https://www.instagram.com/kissaten_
배스킨라빈스 강남대로점	https://search.pstatic.net/common/?autoRotate=true&quality=95&type=w750&src=https%3A%2F%2Fldb-phinf.pstatic.net%2F20190207_263%2F1549518073913VHxxg_JPEG%2FWzOVG98BAb-9oaMe84QYeDV3.jpg	NULL	37.5020662	127.0260775	서울 강남구 강남대로 442 (역삼동) A동 1층	0507-0288-9802	매일 10:00 - 23:00	http://www.baskinrobbins.co.kr
무원	https://search.pstatic.net/common/?autoRotate=true&type=w560_sharpen&src=https%3A%2F%2Fldb-phinf.pstatic.net%2F20230718_188%2F1689645775206DDbeq_PNG%2F%25BC%25BE%25C5%25CD%25C7%25CA%25B5%25E5_%25C8%25A8%25C6%25E4%25C0%25CC%25C1%25F6_%25C0%25CC%25B9%25CC%25C1%25F6-01.png	NULL	37.5028813	127.0413566	서울 강남구 테헤란로 231 east b1	02-6985-7255	월 08:00 - 21:00 / 화 08:00 - 21:00 / 수 08:00 - 21:00 / 목 08:00 - 21:00 / 금 08:00 - 21:00 / 토 10:00 - 21:00 / 일 10:00 - 21:00	https://www.instagram.com/cafe.muwon/
스타벅스 강남비젼타워점	https://search.pstatic.net/common/?autoRotate=true&type=w560_sharpen&src=https%3A%2F%2Fldb-phinf.pstatic.net%2F20190828_93%2F1566953601239OT9MQ_PNG%2FxX7Wv642gXMoTI0DAv0hRymS.png	NULL	37.4965038	127.0297218	서울 강남구 테헤란로2길 27	1522-3232	월(4/1) 07:00 - 22:00 / 화(4/2) 07:00 - 22:00 / 수(4/3) 07:00 - 22:00 / 목(4/4) 07:00 - 22:00 / 금(4/5) 07:00 - 22:00 / 토(4/6) 07:30 - 21:00 / 일(3/31) 08:00 - 20:00	http://www.starbucks.co.kr/
크렘드르네 강남본점	https://search.pstatic.net/common/?autoRotate=true&type=w560_sharpen&src=https%3A%2F%2Fldb-phinf.pstatic.net%2F20240131_282%2F1706680819077TFl85_JPEG%2F%25B3%25D7%25C0%25CC%25B9%25F6%25C7%25C3%25B7%25B9%25C0%25CC%25BD%25BA.jpg	NULL	37.4945824	127.0449886	서울 강남구 언주로63길 16 삼일빌딩 2층 크렘드르네	0507-1399-1620	월 정기휴무 (매주 월요일) / 화 09:00 - 18:00 / 수 09:00 - 18:00 / 목 09:00 - 18:00 / 금 09:00 - 18:00 / 토 09:00 - 18:00 / 일 09:00 - 18:00	https://www.shop-cremederenee.com/?utm_source=%08Naver&utm_medium=Place
스타벅스 강남오거리점	https://search.pstatic.net/common/?autoRotate=true&type=w560_sharpen&src=https%3A%2F%2Fldb-phinf.pstatic.net%2F20190828_93%2F1566953601239OT9MQ_PNG%2FxX7Wv642gXMoTI0DAv0hRymS.png	NULL	37.5020758	127.0266873	서울 강남구 봉은사로2길 39	1522-3232	NULL	http://www.starbucks.co.kr/
셀렉커피랩	https://search.pstatic.net/common/?autoRotate=true&type=w560_sharpen&src=https%3A%2F%2Fldb-phinf.pstatic.net%2F20240103_64%2F1704273153700YoLBw_JPEG%2F20231129_174944.jpg	NULL	37.5056619	127.0406215	서울 강남구 테헤란로39길 50 1층 셀렉커피랩	0507-1403-6334	매일 00:00 - 24:00	https://selectcoffeelab.co.kr/
조선델리 더 부티크	https://search.pstatic.net/common/?autoRotate=true&type=w560_sharpen&src=https%3A%2F%2Fldb-phinf.pstatic.net%2F20220621_101%2F16557793760702KT5g_JPEG%2FJosun_Deli_the_Boutique_low.jpg	NULL	37.5028813	127.0413566	서울 강남구 테헤란로 231 조선팰리스 24층	02-727-7650	월 07:00 - 21:00 / 화 07:00 - 21:00 / 수 07:00 - 21:00 / 목 07:00 - 21:00 / 금 07:00 - 22:00 / 토 07:00 - 22:00 / 일 07:00 - 21:00	https://jpg.josunhotel.com/dining/JosunDeli.do
크라프트카페	https://search.pstatic.net/common/?autoRotate=true&type=w560_sharpen&src=https%3A%2F%2Fldb-phinf.pstatic.net%2F20230821_165%2F1692615451471udi3v_JPEG%2FIMG_5485.jpeg	NULL	37.5033427	127.0286046	서울 강남구 강남대로102길 38-5	0507-1361-2436	월 11:00 - 22:00 / 화 11:00 - 22:00 / 수 11:00 - 22:00 / 목 11:00 - 22:00 / 금 11:00 - 23:00 / 토 11:00 - 23:00 / 일 12:00 - 22:00	NULL
하트카페	https://search.pstatic.net/common/?autoRotate=true&type=w560_sharpen&src=https%3A%2F%2Fldb-phinf.pstatic.net%2F20231003_144%2F1696327268954bpCzc_JPEG%2FIMG_0129.jpg	NULL	37.4971818	127.039878	서울 강남구 논현로76길 11 1층	0507-1349-9970	월 08:00 - 19:30 / 화 08:00 - 19:30 / 수 08:00 - 19:30 / 목 08:00 - 19:30 / 금 08:00 - 19:30 / 토 11:00 - 18:30 / 일 정기휴무 (매주 일요일)	NULL
파리바게뜨 강남역점	https://search.pstatic.net/common/?autoRotate=true&type=w560_sharpen&src=https%3A%2F%2Fldb-phinf.pstatic.net%2F20230130_105%2F1675052482547ET31f_JPEG%2F6C4EC928-919A-4E2C-B79E-5A7846E2D5CE.jpeg	NULL	37.5008145	127.026849	서울 강남구 강남대로 428 만이빌딩	02-558-1979	매일 07:00 - 23:00	https://www.paris.co.kr/
카페진정성 서울역삼	https://search.pstatic.net/common/?autoRotate=true&quality=95&type=w750&src=https%3A%2F%2Fldb-phinf.pstatic.net%2F20230620_210%2F1687229777838H1bh8_JPEG%2F%25B8%25DE%25C0%25CE%25BB%25E7%25C1%25F8_%25C1%25F8%25C1%25A4%25BC%25BA%25BF%25AA%25BB%25EF.jpg	NULL	37.4951632	127.0382056	서울 강남구 역삼로 172 1층	0507-1321-6311	월 09:00 - 19:00 / 화 09:00 - 19:00 / 수 09:00 - 19:00 / 목 09:00 - 19:00 / 금 09:00 - 19:00 / 토 정기휴무 (매주 토요일) / 일 정기휴무 (매주 일요일)	https://www.instagram.com/cafe_jinjungsung/
본부케	https://search.pstatic.net/common/?autoRotate=true&type=w560_sharpen&src=https%3A%2F%2Fldb-phinf.pstatic.net%2F20230508_100%2F1683527469250HIHKO_JPEG%2FDSC06546.jpg	NULL	37.5030511	127.0265258	서울 강남구 강남대로106길 11 1층 본부케	02-567-3365	월 10:30 - 23:00 / 화 10:30 - 23:00 / 수 10:30 - 23:00 / 목 10:30 - 23:00 / 금 10:30 - 23:00 / 토 10:30 - 23:00 / 일 11:00 - 22:00	NULL
아우어베이커리 역삼점	https://search.pstatic.net/common/?autoRotate=true&type=w560_sharpen&src=https%3A%2F%2Fldb-phinf.pstatic.net%2F20221122_95%2F1669104935265K4k9s_JPEG%2FKakaoTalk_20221122_170847960_01.jpg	NULL	37.5005525	127.0408607	서울 강남구 언주로85길 29 1층	0507-1416-0425	월 08:30 - 19:30 / 화 08:30 - 19:30 / 수 08:30 - 19:30 / 목 08:30 - 19:30 / 금 08:30 - 19:30 / 토 10:00 - 19:30 / 일 10:00 - 19:30	http://ourbakery.co.kr
할리스 강남역점	https://search.pstatic.net/common/?autoRotate=true&quality=95&type=w750&src=https%3A%2F%2Fldb-phinf.pstatic.net%2F20210302_125%2F161464487124061agC_JPEG%2FK15utTFWXeuNEny1JMXiV57W.jpg	NULL	37.4988176	127.0278562	서울 강남구 강남대로 402	02-555-0890	월 07:30 - 24:00 / 화 07:30 - 24:00 / 수 07:30 - 24:00 / 목 07:30 - 24:00 / 금 07:30 - 01:00 / 토 07:30 - 01:00 / 일 08:00 - 24:00	http://www.hollys.co.kr/
프레임 바이로찌	https://search.pstatic.net/common/?autoRotate=true&type=w560_sharpen&src=https%3A%2F%2Fldb-phinf.pstatic.net%2F20221213_274%2F1670912322702VegQP_JPEG%2FKakaoTalk_20221026_170642794.jpg	NULL	37.5038698	127.0255468	서울 강남구 역삼동 809-3	02-567-1033	월 10:30 - 23:00 / 화 10:30 - 23:00 / 수 10:30 - 23:00 / 목 10:30 - 23:00 / 금 10:30 - 23:00 / 토 10:30 - 23:00 / 일 11:00 - 22:00	NULL
카페꼼마 역삼마크로젠점	https://search.pstatic.net/common/?autoRotate=true&type=w560_sharpen&src=https%3A%2F%2Fldb-phinf.pstatic.net%2F20231221_81%2F1703149708231gTxlR_JPEG%2F%25BF%25AA%25BB%25EF_5.jpg	NULL	37.5020534	127.0422302	서울 강남구 테헤란로 238 1층	0507-1492-2118	월 07:30 - 19:00 / 화 07:30 - 19:00 / 수 07:30 - 19:00 / 목 07:30 - 19:00 / 금 07:30 - 19:00 / 토 10:30 - 19:00 / 일 10:30 - 19:00	https://www.instagram.com/cafecomma__official/
파브리끄 역삼GFC점	https://search.pstatic.net/common/?autoRotate=true&type=w560_sharpen&src=https%3A%2F%2Fldb-phinf.pstatic.net%2F20191002_42%2F1570011879881VeakR_JPEG%2FM0Zubp1VqpNwy7mDuLklCpKB.jpg	NULL	37.4988038	127.0366283	서울 강남구 역삼로17길 64 1층	0507-1484-6800	월 08:00 - 21:00 / 화 08:00 - 21:00 / 수 08:00 - 21:00 / 목 08:00 - 21:00 / 금 08:00 - 21:00 / 토 12:00 - 18:00 / 일 정기휴무 (매주 일요일)	NULL
설빙 강남역점	https://search.pstatic.net/common/?autoRotate=true&type=w560_sharpen&src=https%3A%2F%2Fldb-phinf.pstatic.net%2F20200513_88%2F15893598059721zNkK_JPEG%2Fw51n3uHfmnK2c3Et4QC7C-BX.jpg	NULL	37.5010977	127.0271724	서울 강남구 테헤란로1길 42 1층	02-558-7708	월 11:30 - 22:00 / 화 11:30 - 22:00 / 수 11:30 - 22:00 / 목 11:30 - 22:00 / 금 11:30 - 22:00 / 토 11:30 - 22:00 / 일 11:30 - 22:00	NULL
강남커피 강남점	https://search.pstatic.net/common/?autoRotate=true&type=w560_sharpen&src=https%3A%2F%2Fldb-phinf.pstatic.net%2F20211014_173%2F1634218555191ubtDJ_JPEG%2Fm95Mci1mPtuB3_ANl5Ff71Dj.jpg	NULL	37.5022941	127.0267468	서울 강남구 강남대로102길 13-5 1~3층, 4층	0507-1345-8522	월 11:00 - 23:00 / 화 11:00 - 23:00 / 수 11:00 - 23:00 / 목 11:00 - 23:00 / 금 11:00 - 23:00 / 토 11:00 - 23:00 / 일 11:00 - 23:00	https://www.instagram.com/gangnam_coffee_
보스켓	https://search.pstatic.net/common/?autoRotate=true&type=w560_sharpen&src=https%3A%2F%2Fldb-phinf.pstatic.net%2F20220127_95%2F16432502703222elcF_JPEG%2F%25C0%25CE%25BD%25BA%25C5%25B8%25B1%25D7%25B7%25A5_%25C8%25AB%25BA%25B8-01.jpg	NULL	37.5051734	127.0311022	서울 강남구 봉은사로20길 18	0507-1372-3035	월 11:30 - 22:0015:30 - 17:30 브레이크타임 / 화 11:30 - 22:0015:30 - 17:30 브레이크타임 / 수 11:30 - 22:0015:30 - 17:30 브레이크타임 / 목 11:30 - 22:0015:30 - 17:30 브레이크타임 / 금 11:30 - 22:0015:30 - 17:30 브레이크타임 / 토 11:30 - 22:0015:30 - 17:30 브레이크타임 / 일 정기휴무 (매주 일요일)	http://app.catchtable.co.kr/ct/shop/boskett
달콤한인생	https://search.pstatic.net/common/?autoRotate=true&type=w560_sharpen&src=https%3A%2F%2Fldb-phinf.pstatic.net%2F20231112_209%2F1699800996557maMFY_JPEG%2FIMG_7847.jpeg	NULL	37.4973503	127.0339938	서울 강남구 테헤란로14길 31 1층 달콤한인생 주황색어닝	0507-1399-8184	월 11:00 - 19:0014:00 - 16:00 브레이크타임 / 화 11:00 - 19:0014:00 - 16:00 브레이크타임 / 수 11:00 - 19:0014:00 - 16:00 브레이크타임 / 목 11:00 - 19:0014:00 - 16:00 브레이크타임 / 금 11:00 - 19:0014:00 - 16:00 브레이크타임 / 토 11:00 - 16:00 / 일 정기휴무 (매주 일요일)	http://pf.kakao.com/_sGxlhj
그레이스케일커피	https://search.pstatic.net/common/?autoRotate=true&quality=95&type=w750&src=https%3A%2F%2Fldb-phinf.pstatic.net%2F20171231_90%2F1514710059271eXXe5_JPEG%2FA33NFWSw55_WWyvHbqpjuUuf.jpeg.jpg	NULL	37.5032259	127.0282664	서울 강남구 강남대로102길 38 1층 그레이스케일커피	02-565-1611	월 11:00 - 22:00 / 화 11:00 - 22:00 / 수 11:00 - 22:00 / 목 11:00 - 22:00 / 금 11:00 - 23:00 / 토 11:00 - 23:00 / 일 11:00 - 22:00	https://www.instagram.com/greyscale_coffee
바나프레소 강남역점	https://search.pstatic.net/common/?autoRotate=true&type=w560_sharpen&src=https%3A%2F%2Fldb-phinf.pstatic.net%2F20230823_187%2F1692775907943gU6bf_JPEG%2F1.jpg	NULL	37.4989854	127.0295436	서울 강남구 테헤란로 113 바나프레소	070-8998-8953	월 06:30 - 23:00 / 화 06:30 - 23:00 / 수 06:30 - 23:00 / 목 06:30 - 23:00 / 금 06:30 - 23:00 / 토 07:00 - 23:00 / 일 07:00 - 23:00	https://www.banapresso.com/
벙커616	https://search.pstatic.net/common/?autoRotate=true&type=w560_sharpen&src=https%3A%2F%2Fldb-phinf.pstatic.net%2F20211230_65%2F1640857840419gvkJC_JPEG%2F%25BA%25A1%25C4%25BF616.jpg	NULL	37.5037492	127.0276432	서울 강남구 강남대로110길 34 지하2층	02-538-0708	월 12:00 - 21:00 / 화 12:00 - 21:00 / 수 12:00 - 21:00 / 목 12:00 - 21:00 / 금 12:00 - 21:00 / 토 12:00 - 21:00 / 일 12:00 - 21:00	https://blog.naver.com/Gd6iOBn8
바나프레소 강남점	https://search.pstatic.net/common/?autoRotate=true&type=w560_sharpen&src=https%3A%2F%2Fldb-phinf.pstatic.net%2F20230823_198%2F1692775981901KVKij_JPEG%2F1.jpg	NULL	37.4955423	127.0304041	서울 강남구 테헤란로4길 46 쌍용플래티넘 1층	070-8998-8922	월 06:30 - 23:00 / 화 06:30 - 23:00 / 수 06:30 - 23:00 / 목 06:30 - 23:00 / 금 06:30 - 23:00 / 토 07:00 - 23:00 / 일 07:00 - 23:00	https://www.banapresso.com/
할리스 강남역2점	https://search.pstatic.net/common/?autoRotate=true&quality=95&type=w750&src=https%3A%2F%2Fldb-phinf.pstatic.net%2F20210302_125%2F161464487124061agC_JPEG%2FK15utTFWXeuNEny1JMXiV57W.jpg	NULL	37.500395	127.0268811	서울 강남구 강남대로 422 씨티빌딩 1층	02-568-9056	월 09:00 - 24:00 / 화 09:00 - 24:00 / 수 09:00 - 24:00 / 목 09:00 - 24:00 / 금 09:00 - 24:00 / 토 09:00 - 01:00 / 일 09:00 - 24:00	http://www.hollys.co.kr/
노아베이커리 역삼 GFC점	https://search.pstatic.net/common/?autoRotate=true&type=w560_sharpen&src=https%3A%2F%2Fldb-phinf.pstatic.net%2F20210107_48%2F1609983513896AMX7F_JPEG%2FKakaoTalk_20210106_175706889_03.jpg	NULL	37.5000263	127.0365456	서울 강남구 테헤란로 152 B1	02-558-4100	월 07:00 - 21:00 / 화 07:00 - 21:00 / 수 07:00 - 21:00 / 목 07:00 - 21:00 / 금 07:00 - 21:00 / 토 09:00 - 19:00 / 일 정기휴무 (매주 일요일)	https://www.instagram.com/noahbakery_kr
커피빈 강남대로센터점	https://search.pstatic.net/common/?autoRotate=true&type=w560_sharpen&src=https%3A%2F%2Fldb-phinf.pstatic.net%2F20201112_231%2F1605147236347vudDc_JPEG%2F_yE8deVa01TU4tluvQA9DcRc.jpg	NULL	37.5020662	127.0260775	서울 강남구 강남대로 442 흥국생명빌딩 2층	02-565-3345	월 07:00 - 23:00 / 화 07:00 - 23:00 / 수 07:00 - 23:00 / 목 07:00 - 23:00 / 금 07:00 - 23:00 / 토 07:00 - 23:00 / 일 07:00 - 23:00	http://www.coffeebeankorea.com/
메타빌토스	https://search.pstatic.net/common/?autoRotate=true&type=w560_sharpen&src=https%3A%2F%2Fldb-phinf.pstatic.net%2F20230402_123%2F1680415375448FYu8t_PNG%2F%25B4%25EB%25C1%25F6_24x.png	NULL	37.5029416	127.0351319	서울 강남구 테헤란로25길 36 1층 102호	0507-1445-3319	월 07:30 - 20:00 / 화 07:30 - 20:00 / 수 07:30 - 20:00 / 목 07:30 - 20:00 / 금 07:30 - 20:00 / 토 10:30 - 20:00 / 일 10:30 - 20:00	NULL
파스쿠찌 역삼테헤란점	https://search.pstatic.net/common/?autoRotate=true&type=w560_sharpen&src=https%3A%2F%2Fldb-phinf.pstatic.net%2F20220108_88%2F1641604200478hILa8_JPEG%2F1C9D2C05-8A31-4B77-A950-F334C5BBE328.jpeg	NULL	37.5009848	127.0361635	서울 강남구 테헤란로 151	0507-2093-3342	월 07:30 - 22:30 / 화 07:30 - 22:30 / 수 07:30 - 22:30 / 목 07:30 - 22:30 / 금 07:30 - 22:30 / 토 08:00 - 22:00 / 일 09:00 - 20:00	https://xn--100--er5pp93d0icp2n2ic5uttwbs3h6zmqsjc2olyj4na.com
투썸플레이스 역삼성홍타워점	https://search.pstatic.net/common/?autoRotate=true&type=w560_sharpen&src=https%3A%2F%2Fldb-phinf.pstatic.net%2F20220811_67%2F1660201821803gepiN_JPEG%2FScreenshot_20220811-160604_TWOSOME_QUBE.jpg	NULL	37.499654	127.034304	서울 강남구 테헤란로 138 1층 투썸플레이스	02-508-2388	월 07:00 - 22:00 / 화 07:00 - 22:00 / 수 07:00 - 22:00 / 목 07:00 - 22:00 / 금 07:00 - 22:00 / 토 08:00 - 22:00 / 일 08:00 - 22:00	http://www.twosome.co.kr
카페요아정 강남역점	https://search.pstatic.net/common/?autoRotate=true&type=w560_sharpen&src=https%3A%2F%2Fldb-phinf.pstatic.net%2F20240321_25%2F1711008639459S2CB8_JPEG%2FKakaoTalk_20240321_170130808_02.jpg	NULL	37.4937516	127.0353899	서울 강남구 역삼로14길 12 1층 카페요아정 강남역점	02-555-5021	매일 12:00 - 01:00	NULL
커피빈 신논현역점	https://search.pstatic.net/common/?autoRotate=true&type=w560_sharpen&src=https%3A%2F%2Fldb-phinf.pstatic.net%2F20201112_96%2F1605148296097r3eay_JPEG%2FnjNlzrgNYn6EfJiT1J_eCjus.jpg	NULL	37.5045463	127.0256122	서울 강남구 봉은사로 108 글라스톤빌딩1층	02-569-9061	월 07:00 - 23:00 / 화 07:00 - 23:00 / 수 07:00 - 23:00 / 목 07:00 - 23:00 / 금 07:00 - 23:00 / 토 08:00 - 23:00 / 일 08:00 - 22:00	http://www.coffeebeankorea.com/
메가MGC커피 역삼GFC점	https://search.pstatic.net/common/?autoRotate=true&quality=95&type=w750&src=https%3A%2F%2Fldb-phinf.pstatic.net%2F20230621_29%2F16873437037985gtV1_JPEG%2F%25BF%25AA%25BB%25EFGFC%25C1%25A1.jpg	NULL	37.4991413	127.0374381	서울 강남구 논현로 429	02-501-0656	월 07:30 - 22:00 / 화 07:30 - 22:00 / 수 07:30 - 22:00 / 목 07:30 - 22:00 / 금 07:30 - 22:00 / 토 09:00 - 22:00 / 일 09:00 - 22:00	NULL
탐앤탐스 역삼점	https://search.pstatic.net/common/?autoRotate=true&type=w560_sharpen&src=https%3A%2F%2Fldb-phinf.pstatic.net%2F20221020_294%2F1666276832203eR8va_JPEG%2F20221007_070915.jpg	NULL	37.4954679	127.0398263	서울 강남구 논현로 338	02-3452-4565	매일 00:00 - 24:00	https://tomntoms.com/
서울케이크	https://search.pstatic.net/common/?autoRotate=true&type=w560_sharpen&src=https%3A%2F%2Fldb-phinf.pstatic.net%2F20230312_146%2F1678604959815G4cgC_JPEG%2FIMG_5776.	NULL	37.5028311	127.033952	서울 강남구 논현로97길 21 101동 지하1층 B01호	0507-1470-8202	월 정기휴무 (매주 월요일) / 화 13:00 - 19:3016:00 - 17:55 브레이크타임 / 수 13:00 - 19:3016:00 - 17:55 브레이크타임 / 목 13:00 - 19:3016:00 - 17:55 브레이크타임 / 금 13:00 - 19:3016:00 - 17:55 브레이크타임 / 토 17:00 - 19:30 / 일 정기휴무 (매주 일요일)	http://pf.kakao.com/_zrkxexj
노보텔 앰배서더 서울 강남 로비라운지	https://search.pstatic.net/common/?autoRotate=true&type=w560_sharpen&src=https%3A%2F%2Fldb-phinf.pstatic.net%2F20240314_161%2F17103753733730vOwJ_JPEG%2F240216_NAG_0053_select_fin-4_50.jpg	NULL	37.5053901	127.0290023	서울 강남구 봉은사로 130 로비층	02-531-6611	매일 10:00 - 22:00	https://app.catchtable.co.kr/ct/shop/LobbyLounge
피그커피 역삼점	https://search.pstatic.net/common/?autoRotate=true&type=w560_sharpen&src=https%3A%2F%2Fldb-phinf.pstatic.net%2F20181019_242%2F1539876270033hNUyw_JPEG%2F0TuFedOI3k35vwb8SxGtikVa.jpeg.jpg	NULL	37.5051584	127.0400846	서울 강남구 언주로97길 15 1층	0507-2093-8340	월 07:30 - 18:00 / 화 07:30 - 18:00 / 수 07:30 - 18:00 / 목 07:30 - 18:00 / 금 07:30 - 18:00 / 토 정기휴무 (매주 토요일) / 일 정기휴무 (매주 일요일)	https://xn--100--er5pp93d0icp2n2ic5uttwbs3h6zmqsjc2olyj4na.com
투썸플레이스 강남대륭타워점	https://search.pstatic.net/common/?autoRotate=true&type=w560_sharpen&src=https%3A%2F%2Fldb-phinf.pstatic.net%2F20210114_16%2F16105935113353tCdF_JPEG%2FsdPmOGHE2x8njO5fh0p_PezW.jpg	NULL	37.4953112	127.0291502	서울 강남구 강남대로 362-2 가로판매대	02-538-2369	매일 07:00 - 23:00	NULL
커피빈 강남역먹자골목점	https://search.pstatic.net/common/?autoRotate=true&type=w560_sharpen&src=https%3A%2F%2Fldb-phinf.pstatic.net%2F20201112_239%2F1605148349379SfVfn_JPEG%2Ffh7bpi5Szh_QY84ax_M3l9ux.jpg	NULL	37.5001166	127.0273159	서울 강남구 테헤란로1길 29	02-552-6311	월 07:30 - 23:00 / 화 07:30 - 23:00 / 수 07:30 - 23:00 / 목 07:30 - 23:00 / 금 07:30 - 24:00 / 토 08:00 - 24:00 / 일 08:00 - 23:00	http://www.coffeebeankorea.com/
스타벅스 선릉역점	https://search.pstatic.net/common/?autoRotate=true&type=w560_sharpen&src=https%3A%2F%2Fldb-phinf.pstatic.net%2F20190828_93%2F1566953601239OT9MQ_PNG%2FxX7Wv642gXMoTI0DAv0hRymS.png	NULL	37.5039513	127.0485523	서울 강남구 테헤란로 334	1522-3232	NULL	http://www.starbucks.co.kr/
배스킨라빈스 SPC스퀘어점	https://search.pstatic.net/common/?autoRotate=true&quality=95&type=w750&src=https%3A%2F%2Fldb-phinf.pstatic.net%2F20190207_263%2F1549518073913VHxxg_JPEG%2FWzOVG98BAb-9oaMe84QYeDV3.jpg	NULL	37.4943794	127.0298179	서울 강남구 강남대로 352 (역삼동) 지상 2층	0507-2093-2693	매일 10:00 - 23:00	http://www.baskinrobbins.co.kr
카페드아마폴라 강남점	https://search.pstatic.net/common/?autoRotate=true&quality=95&type=w750&src=https%3A%2F%2Fldb-phinf.pstatic.net%2F20190925_211%2F1569420057330uC5Vu_JPEG%2FiJ37ltN1SfkSHVboUP125es3.jpg	NULL	37.5081265	127.0375393	서울 강남구 봉은사로 230 봉암빌딩	02-567-8900	매일 00:00 - 24:00	NULL
스타벅스 강남대로점	https://search.pstatic.net/common/?autoRotate=true&type=w560_sharpen&src=https%3A%2F%2Fldb-phinf.pstatic.net%2F20190828_93%2F1566953601239OT9MQ_PNG%2FxX7Wv642gXMoTI0DAv0hRymS.png	NULL	37.5031776	127.0255916	서울 강남구 강남대로 456	1522-3232	월(4/1) 08:00 - 22:00 / 화(4/2) 08:00 - 22:00 / 수(4/3) 08:00 - 22:00 / 목(4/4) 08:00 - 22:00 / 금(4/5) 08:00 - 22:00 / 토(4/6) 08:00 - 22:00 / 일(3/31) 09:00 - 21:00	http://www.starbucks.co.kr/
원퍼밀커피 신논현본점	https://search.pstatic.net/common/?autoRotate=true&type=w560_sharpen&src=https%3A%2F%2Fldb-phinf.pstatic.net%2F20211204_26%2F1638605570004fxHFa_JPEG%2FScreenshot_20211204-170937_NAVER.jpg	NULL	37.5029758	127.0262365	서울 강남구 강남대로106길 7 1층	070-8844-1591	월 08:00 - 22:00 / 화 08:00 - 22:00 / 수 08:00 - 22:00 / 목 08:00 - 22:00 / 금 08:00 - 22:30 / 토 08:00 - 22:30 / 일 09:00 - 21:30	https://www.instagram.com/onepermil/
르와조 역삼	https://search.pstatic.net/common/?autoRotate=true&type=w560_sharpen&src=https%3A%2F%2Fldb-phinf.pstatic.net%2F20240105_62%2F1704432303960J92wY_JPEG%2Fddf2.jpg	NULL	37.5024224	127.0350685	서울 강남구 논현로95길 10 1층	070-7537-3893	월 08:00 - 21:00 / 화 08:00 - 21:00 / 수 08:00 - 21:00 / 목 08:00 - 21:00 / 금 08:00 - 21:00 / 토 10:00 - 21:00 / 일 10:00 - 21:00	https://smartstore.naver.com/cafelou
요거티 강남점	https://search.pstatic.net/common/?autoRotate=true&quality=95&type=w750&src=https%3A%2F%2Fldb-phinf.pstatic.net%2F20231020_225%2F1697802119925w5vkq_JPEG%2F%25B4%25EB%25C1%25F6_20_%25BB%25E7%25BA%25BB%25B7%25CE%25B0%25ED1.jpg	NULL	37.4915092	127.0364916	서울 강남구 도곡로13길 5 1층	02-2135-1833	월 11:30 - 01:00 / 화 11:30 - 01:00 / 수 11:30 - 01:00 / 목 11:30 - 01:00 / 금 11:30 - 01:00 / 토 11:30 - 01:00 / 일 11:30 - 01:00	https://www.instagram.com/yogurtii_official
스타벅스 구역삼사거리점	https://search.pstatic.net/common/?autoRotate=true&type=w560_sharpen&src=https%3A%2F%2Fldb-phinf.pstatic.net%2F20190828_93%2F1566953601239OT9MQ_PNG%2FxX7Wv642gXMoTI0DAv0hRymS.png	NULL	37.4959353	127.0389176	서울 강남구 논현로 401	1522-3232	NULL	http://www.starbucks.co.kr/
파라노이드 강남뱅뱅 카페	https://search.pstatic.net/common/?autoRotate=true&type=w560_sharpen&src=https%3A%2F%2Fldb-phinf.pstatic.net%2F20210827_280%2F1630052859419NPUNa_JPEG%2FaWsYO2MnM5STh7NztISn5j2J.jpg	NULL	37.4904077	127.0318919	서울 강남구 강남대로62길 3 1층	02-6953-7228	월 08:00 - 20:00 / 화 08:00 - 20:00 / 수 08:00 - 20:00 / 목 08:00 - 20:00 / 금 08:00 - 20:00 / 토 11:00 - 19:00 / 일 11:00 - 19:00	https://www.instagram.com/paranoid.cafe
베어글스 역삼	https://search.pstatic.net/common/?autoRotate=true&type=w560_sharpen&src=https%3A%2F%2Fldb-phinf.pstatic.net%2F20240311_264%2F17101233258301YkNm_PNG%2F%25BA%25A3%25BE%25EE%25B1%25DB_%25C6%25F7%25BD%25BA%25C5%25CD.png	NULL	37.4981949	127.033829	서울 강남구 논현로85길 52 . 1층 104호	0507-1385-4787	월 08:00 - 23:00 / 화 08:00 - 23:00 / 수 08:00 - 23:00 / 목 08:00 - 23:00 / 금 08:00 - 23:00 / 토 10:00 - 23:00 / 일 10:00 - 23:00	NULL
공차 강남역점	https://search.pstatic.net/common/?autoRotate=true&type=w560_sharpen&src=https%3A%2F%2Fldb-phinf.pstatic.net%2F20210503_139%2F1620030072045Sy3Xm_JPEG%2FVZKIoTwbwZO7zyh0B1Q-3vW5.jpg	NULL	37.4981647	127.0283079	서울 강남구 강남대로 396 강남역 지하1층 강남역지하쇼핑센터 E-37	0507-1340-7344	월 07:30 - 22:30 / 화 07:30 - 22:30 / 수 07:30 - 22:30 / 목 07:30 - 22:30 / 금 07:30 - 22:30 / 토 07:30 - 22:30 / 일 08:00 - 22:00	http://www.gong-cha.co.kr
라바게트 역삼점	https://search.pstatic.net/common/?autoRotate=true&type=w560_sharpen&src=https%3A%2F%2Fldb-phinf.pstatic.net%2F20231005_161%2F16964714142395QXKP_PNG%2FKakaoTalk_20231005_094954399.png	NULL	37.4955544	127.0441164	서울 강남구 언주로67길 19 1층 103호	0507-1305-3497	월 08:00 - 20:00 / 화 08:00 - 20:00 / 수 08:00 - 20:00 / 목 08:00 - 20:00 / 금 08:00 - 20:00 / 토 09:00 - 19:00 / 일 09:00 - 19:00	https://www.instagram.com/labaguette_ys
커피빈 강남역12번출구점	https://search.pstatic.net/common/?autoRotate=true&type=w560_sharpen&src=https%3A%2F%2Fldb-phinf.pstatic.net%2F20201120_285%2F16058474184598P2XU_JPEG%2Fd2XVuEakSFpCNRn1iGEf2pN-.jpg	NULL	37.4988903	127.0292963	서울 강남구 테헤란로 111 대건빌딩 2층	02-569-5838	월 07:00 - 22:00 / 화 07:00 - 22:00 / 수 07:00 - 22:00 / 목 07:00 - 22:00 / 금 07:00 - 22:00 / 토 08:00 - 22:00 / 일 09:00 - 21:00	http://www.coffeebeankorea.com/
곤트란쉐리에 선릉점	https://search.pstatic.net/common/?autoRotate=true&type=w560_sharpen&src=https%3A%2F%2Fldb-phinf.pstatic.net%2F20230331_46%2F1680232310521QMBeo_JPEG%2F11.jpg	NULL	37.5032132	127.0471401	서울 강남구 테헤란로52길 6 1층 101호	0507-1368-9173	월 08:00 - 20:00 / 화 08:00 - 20:00 / 수 08:00 - 20:00 / 목 08:00 - 20:00 / 금 08:00 - 20:00 / 토 08:00 - 22:00 / 일 08:00 - 22:00	https://www.instagram.com/gc_gontrancherrier_kr/
로스터리 락온 역삼점	https://search.pstatic.net/common/?autoRotate=true&quality=95&type=w750&src=https%3A%2F%2Fldb-phinf.pstatic.net%2F20240307_206%2F1709822435643oWPmb_PNG%2F3235163108847305174_8.png	NULL	37.5009197	127.033235	서울 강남구 강남대로94길 71-4 1층 로스터리  락온 역삼점	0507-1398-5315	월 07:30 - 17:30 / 화 07:30 - 17:30 / 수 07:30 - 17:30 / 목 07:30 - 17:30 / 금 07:30 - 17:30 / 토 정기휴무 (매주 토요일) / 일 정기휴무 (매주 일요일)	https://www.instagram.com/roastery_lahgon_yeoksam
절기	https://search.pstatic.net/common/?autoRotate=true&type=w560_sharpen&src=https%3A%2F%2Fldb-phinf.pstatic.net%2F20220606_241%2F1654491717063KRPWz_JPEG%2F%25C0%25FD%25B1%25E2_%25C3%25D6%25C1%25BE%25BA%25BB-8.jpg	NULL	37.5091016	127.0406831	서울 강남구 봉은사로 306 1층	0507-1327-6475	월 정기휴무 (매주 월요일) / 화 14:00 - 22:00 / 수 14:00 - 22:00 / 목 14:00 - 22:00 / 금 14:00 - 22:00 / 토 12:00 - 20:00 / 일 12:00 - 20:00	http://jeolgi.com
하타가야 본점	https://search.pstatic.net/common/?autoRotate=true&type=w560_sharpen&src=https%3A%2F%2Fldb-phinf.pstatic.net%2F20220919_58%2F1663541926513VU9sm_JPEG%2F0G5A7910-1.jpg	NULL	37.5060533	127.0306387	서울 강남구 봉은사로 146 1층 하타가야	0507-1371-1793	월 09:00 - 16:00 / 화 09:00 - 16:00 / 수 09:00 - 16:00 / 목 09:00 - 16:00 / 금 09:00 - 16:00 / 토 09:00 - 16:00 / 일 정기휴무 (매주 일요일)	https://www.instagram.com/hatagaya.seoul
투썸플레이스 선릉로점	https://search.pstatic.net/common/?autoRotate=true&type=w560_sharpen&src=https%3A%2F%2Fldb-phinf.pstatic.net%2F20210111_182%2F1610355927395M2xdB_PNG%2F4w1KceViVqzhuOaZV6GEEJxo.PNG.png	NULL	37.5042475	127.044349	서울 강남구 선릉로93길 54 일환빌딩1-2층	02-6952-2688	월 07:00 - 22:00 / 화 07:00 - 22:00 / 수 07:00 - 22:00 / 목 07:00 - 22:00 / 금 07:00 - 22:00 / 토 08:00 - 22:00 / 일 08:00 - 22:00	NULL
바샌	https://search.pstatic.net/common/?autoRotate=true&type=w560_sharpen&src=https%3A%2F%2Fldb-phinf.pstatic.net%2F20231125_6%2F1700887640436IyAoB_JPEG%2FIMG_8110.jpeg	NULL	37.4908161	127.0342636	서울 강남구 강남대로62길 34 1층 바샌 역삼점	02-566-5639	월 08:00 - 20:00 / 화 08:00 - 20:00 / 수 08:00 - 20:00 / 목 08:00 - 20:00 / 금 08:00 - 20:00 / 토 08:00 - 15:00 / 일 08:00 - 15:00	http://instagram.com/thanksbreadandcoffee
카페포레	https://search.pstatic.net/common/?autoRotate=true&type=w560_sharpen&src=https%3A%2F%2Fldb-phinf.pstatic.net%2F20200612_175%2F1591933472345vp5lP_JPEG%2FJAZx4Fyd8A9rjW8SkMt3OGb1.jpg	NULL	37.5027932	127.0390872	서울 강남구 테헤란로33길 15 1층/2층	0507-1345-3315	월 07:30 - 23:00 / 화 07:30 - 23:00 / 수 07:30 - 23:00 / 목 07:30 - 23:00 / 금 07:30 - 23:00 / 토 09:00 - 22:00 / 일 09:00 - 22:00	https://www.instagram.com/cafe_foret33
팡뮤제 베이커리 역삼	https://search.pstatic.net/common/?autoRotate=true&type=w560_sharpen&src=https%3A%2F%2Fldb-phinf.pstatic.net%2F20240104_100%2F1704346767738qYewv_JPEG%2FEE591185-1AF7-472D-896E-9410657ADBE9.jpeg	NULL	37.4969582	127.0400213	서울 강남구 논현로76길 12 1층	0507-1436-3356	월 07:30 - 21:00 / 화 07:30 - 21:00 / 수 07:30 - 21:00 / 목 07:30 - 21:00 / 금 07:30 - 21:00 / 토 09:00 - 20:00 / 일 정기휴무 (매주 일요일)	NULL
스타벅스 센터필드R점	https://search.pstatic.net/common/?autoRotate=true&type=w560_sharpen&src=https%3A%2F%2Fldb-phinf.pstatic.net%2F20190828_93%2F1566953601239OT9MQ_PNG%2FxX7Wv642gXMoTI0DAv0hRymS.png	NULL	37.5028813	127.0413566	서울 강남구 테헤란로 231	1522-3232	월(4/1) 07:00 - 22:00 / 화(4/2) 07:00 - 22:00 / 수(4/3) 07:00 - 22:00 / 목(4/4) 07:00 - 22:00 / 금(4/5) 07:00 - 22:00 / 토(4/6) 08:00 - 22:00 / 일 정보없음	http://www.starbucks.co.kr/
해머스미스커피 역삼테헤란로점	https://search.pstatic.net/common/?autoRotate=true&type=w560_sharpen&src=https%3A%2F%2Fldb-phinf.pstatic.net%2F20210421_163%2F16190080809387wR8G_JPEG%2FJOry26scG8b4CXEu8yqc5t21.jpeg.jpg	NULL	37.4991085	127.0332132	서울 강남구 테헤란로14길 5 삼흥역삼빌딩 지상1층	0507-1480-1987	NULL	http://www.hammersmith.co.kr
몽슈슈 카페 드 몽슈슈 선정릉점	https://search.pstatic.net/common/?autoRotate=true&type=w560_sharpen&src=https%3A%2F%2Fldb-phinf.pstatic.net%2F20180810_52%2F1533864969706ISHIx_JPEG%2Fp4JJqExKeGwGkk5Kifh8keR3.jpg	NULL	37.509735	127.042927	서울 강남구 봉은사로 328 102호	02-566-1271	월 10:30 - 22:30 / 화 10:30 - 22:30 / 수 10:30 - 22:30 / 목 10:30 - 22:30 / 금 10:30 - 22:30 / 토 10:30 - 22:30 / 일 10:30 - 22:30	NULL
포코너스	https://search.pstatic.net/common/?autoRotate=true&type=w560_sharpen&src=https%3A%2F%2Fldb-phinf.pstatic.net%2F20240314_278%2F1710382097763BDyB3_JPEG%2FKakaoTalk_20240314_110712859.jpg	NULL	37.4927863	127.0410838	서울 강남구 도곡로 203 1층	0507-1445-2684	월 08:00 - 21:00 / 화 08:00 - 21:00 / 수 08:00 - 21:00 / 목 08:00 - 21:00 / 금 08:00 - 21:00 / 토 10:00 - 20:00 / 일 10:00 - 20:00	https://www.instagram.com/four_corners_coffee_hotdog/
디저트39 강남테헤란로점	https://search.pstatic.net/common/?autoRotate=true&type=w560_sharpen&src=https%3A%2F%2Fldb-phinf.pstatic.net%2F20220901_256%2F1662007087822DVzD4_JPEG%2FKakaoTalk_20220609_075616683.jpg	NULL	37.4976709	127.029341	서울 강남구 테헤란로4길 6	02-555-0390	매일 07:00 - 22:00	NULL
핫코베이커리	https://search.pstatic.net/common/?autoRotate=true&type=w560_sharpen&src=https%3A%2F%2Fldb-phinf.pstatic.net%2F20231106_142%2F1699276641505kpwf4_JPEG%2FKakaoTalk_20231104_085124850_05.jpg	NULL	37.5076104	127.0406665	서울 강남구 봉은사로44길 25 .101호	0507-1328-0944	월 08:00 - 20:00 / 화 08:00 - 20:00 / 수 08:00 - 20:00 / 목 08:00 - 20:00 / 금 08:00 - 20:00 / 토 08:00 - 18:00 / 일 정기휴무 (매주 일요일)	https://www.instagram.com/hakko_bakery
레이지 요거트	https://search.pstatic.net/common/?autoRotate=true&quality=95&type=w750&src=https%3A%2F%2Fldb-phinf.pstatic.net%2F20220102_161%2F1641112714408FLzmX_JPEG%2FKakaoTalk_Photo_2022-01-02-17-38-27.jpeg	NULL	37.4936914	127.0310381	서울 강남구 역삼로 109 105호	0507-1497-5595	월 10:00 - 20:00 / 화 10:00 - 20:00 / 수 10:00 - 20:00 / 목 10:00 - 20:00 / 금 10:00 - 20:00 / 토 10:00 - 20:00 / 일 정기휴무 (매주 일요일)	https://lazyyogurt.modoo.at/
투썸플레이스 테헤란선릉역점	https://search.pstatic.net/common/?autoRotate=true&quality=95&type=w750&src=https%3A%2F%2Fldb-phinf.pstatic.net%2F20200620_171%2F1592626285152QQq33_JPEG%2Fh52yciL0AeFnGXC3U1509iR0.jpg	NULL	37.5034178	127.0478321	서울 강남구 선릉로89길 16 1층	0507-1379-0361	월 07:30 - 24:00 / 화 07:30 - 24:00 / 수 07:30 - 24:00 / 목 07:30 - 24:00 / 금 07:30 - 24:00 / 토 07:30 - 23:30 / 일 07:30 - 23:30	NULL
ESC	https://search.pstatic.net/common/?autoRotate=true&type=w560_sharpen&src=https%3A%2F%2Fldb-phinf.pstatic.net%2F20240326_200%2F1711433995380g4qM9_PNG%2FKakaoTalk_Photo_2024-03-26-15-19-33.png	NULL	37.5034346	127.0398562	서울 강남구 언주로93길 28-2 1층	02-501-4030	NULL	https://www.instagram.com/esc.by.smon/
비유어거트	https://search.pstatic.net/common/?autoRotate=true&quality=95&type=w750&src=https%3A%2F%2Fldb-phinf.pstatic.net%2F20220827_153%2F1661575564696gqLJL_JPEG%2F4B92777F-378E-4C4C-938B-9DCE3762941D.jpeg	NULL	37.4976709	127.029341	서울 강남구 테헤란로4길 6 지상 1층 125	0507-1491-1137	월 08:00 - 20:00 / 화 08:00 - 20:00 / 수 08:00 - 20:00 / 목 08:00 - 20:00 / 금 08:00 - 20:00 / 토 10:00 - 20:00 / 일 정기휴무 (매주 일요일)	https://www.instagram.com/be_yo_urgurt
마니달오 선릉본점 24시	https://search.pstatic.net/common/?autoRotate=true&type=w560_sharpen&src=https%3A%2F%2Fldb-phinf.pstatic.net%2F20230829_74%2F1693301482301wWDWX_JPEG%2F%25A4%25BD%25A4%25BE%25A4%25BE.jpg	NULL	37.5026646	127.047119	서울 강남구 테헤란로52길 16 1층 20호	0507-2087-0134	매일 00:00 - 24:00	https://xn--100--er5pp93d0icp2n2ic5uttwbs3h6zmqsjc2olyj4na.com
아티제 강남유니온센터점	https://search.pstatic.net/common/?autoRotate=true&type=w560_sharpen&src=https%3A%2F%2Fldb-phinf.pstatic.net%2F20190826_124%2F15668004134556hCio_JPEG%2FPbm82JKe1IpR4IVLbIEGtakb.jpg	NULL	37.4909898	127.0315025	서울 강남구 강남대로 310 유니온센터 1층	02-3453-2155	월 07:00 - 21:00 / 화 07:00 - 21:00 / 수 07:00 - 21:00 / 목 07:00 - 21:00 / 금 07:00 - 21:00 / 토 정기휴무 (매주 토요일) / 일 정기휴무 (매주 일요일)	https://www.cafeartisee.com/
컴포즈커피 강남역사점	https://search.pstatic.net/common/?autoRotate=true&type=w560_sharpen&src=https%3A%2F%2Fldb-phinf.pstatic.net%2F20190103_252%2F1546517415100C9KLk_JPEG%2FSSAjuqPDOhlR0A6Aeer0FLBO.jpg	NULL	37.4986211	127.0280297	서울 강남구 테헤란로 101 지하 1층 E-43 컴포즈커피 강남역사점	NULL	월 07:30 - 21:00 / 화 07:30 - 21:00 / 수 07:30 - 21:00 / 목 07:30 - 21:00 / 금 07:30 - 21:00 / 토 07:30 - 21:00 / 일 08:00 - 21:00	http://www.composecoffee.com/
할리스 역삼스타점	https://search.pstatic.net/common/?autoRotate=true&quality=95&type=w750&src=https%3A%2F%2Fldb-phinf.pstatic.net%2F20210302_125%2F161464487124061agC_JPEG%2FK15utTFWXeuNEny1JMXiV57W.jpg	NULL	37.4994508	127.0358787	서울 강남구 테헤란로26길 12 리틀스타빌딩 1층	02-501-4142	월 08:00 - 23:00 / 화 08:00 - 23:00 / 수 08:00 - 23:00 / 목 08:00 - 23:00 / 금 08:00 - 23:00 / 토 10:00 - 21:30 / 일 10:00 - 21:30	http://www.hollys.co.kr/
삼송빵집 신논현점	https://search.pstatic.net/common/?autoRotate=true&type=w560_sharpen&src=https%3A%2F%2Fldb-phinf.pstatic.net%2F20231101_55%2F169882469888887Xf9_PNG%2F2023_%25C5%25EB%25BF%25C1_-_%25BA%25B9%25BB%25E7%25BA%25BB.png	NULL	37.5046342	127.0250313	서울 강남구 봉은사로 102 신논현역  지하 2층 3호	02-552-3035	월 10:00 - 22:00 / 화 10:00 - 22:00 / 수 10:00 - 22:00 / 목 10:00 - 22:00 / 금 10:00 - 22:00 / 토 10:00 - 22:00 / 일 10:00 - 22:00	http://ssbnc.kr
015 COFFEE	https://search.pstatic.net/common/?autoRotate=true&type=w560_sharpen&src=https%3A%2F%2Fldb-phinf.pstatic.net%2F20230830_160%2F1693378045013y8Ib4_JPEG%2F%25C8%25DE%25BD%25C4_1-1.jpg	NULL	37.501274	127.0275466	서울 강남구 봉은사로18길 84 2층 015 COFFEE	NULL	월 10:00 - 22:00 / 화 10:00 - 22:00 / 수 10:00 - 22:00 / 목 10:00 - 22:00 / 금 10:00 - 23:00 / 토 12:00 - 23:00 / 일 12:00 - 21:00	NULL
이니스 와플 선릉 본점	https://search.pstatic.net/common/?autoRotate=true&type=w560_sharpen&src=https%3A%2F%2Fldb-phinf.pstatic.net%2F20240205_85%2F1707094444452xzmtF_JPEG%2FKakaoTalk_20230218_115348304.jpg	NULL	37.5059652	127.04699	서울 강남구 테헤란로55길 24 1층 이니스 와플	0507-1345-2135	월 08:00 - 21:00 / 화 08:00 - 21:00 / 수 08:00 - 21:00 / 목 08:00 - 21:00 / 금 08:00 - 21:00 / 토 10:00 - 22:00 / 일 10:00 - 22:00	https://inniswaffle.modoo.at/
